CUSTOM.updateTime,OSD.flyTime [s],OSD.latitude,OSD.longitude,OSD.height [m],OSD.altitude [m],OSD.pitch,OSD.roll,OSD.yaw,GIMBAL.pitch,GIMBAL.roll,GIMBAL.yaw,CUSTOM.travelled [m],CALC.distance [m]
2019/01/09 19:16:53.972,0.0,29.577192,-95.754259,0.0,119.8,0.2,0.0,-90.8,0.0,0.0,-86.3,0.0,0.0
2019/01/09 19:16:53.972,0.1,29.577192,-95.754259,0.0,119.8,0.2,0.0,-90.7,0.0,0.0,-86.3,0.0,0.0
2019/01/09 19:16:53.972,0.2,29.577192,-95.754259,0.0,119.8,0.2,0.0,-90.8,0.0,0.0,-86.2,0.0,0.0
2019/01/09 19:16:54.073,0.3,29.577192,-95.754259,0.0,119.8,0.2,0.0,-90.8,0.0,0.0,-86.3,0.0,0.67
2019/01/09 19:16:54.184,0.4,29.577192,-95.754259,0.0,119.8,0.2,0.0,-90.8,0.0,0.0,-86.2,0.01,0.67
2019/01/09 19:16:54.291,0.5,29.577192,-95.754259,0.0,119.8,0.2,0.0,-90.8,0.0,0.0,-86.2,0.01,0.67
2019/01/09 19:16:54.396,0.6,29.577192,-95.754259,0.0,119.8,0.2,0.0,-90.8,0.0,0.0,-86.3,0.02,0.68
2019/01/09 19:16:54.497,0.7,29.577192,-95.754259,0.0,119.8,0.2,0.0,-90.8,0.0,0.0,-86.8,0.02,0.68
2019/01/09 19:16:54.598,0.8,29.577192,-95.754259,0.0,119.8,0.2,0.0,-90.8,0.0,0.0,-88.2,0.02,0.68
2019/01/09 19:16:54.705,0.9,29.577192,-95.754259,0.0,119.8,0.2,0.0,-90.8,0.0,0.0,-89.1,0.02,0.68
2019/01/09 19:16:54.811,1.0,29.577192,-95.754259,0.0,119.8,0.1,0.0,-90.8,0.0,0.0,-89.5,0.03,0.69
2019/01/09 19:16:54.914,1.1,29.577192,-95.754259,0.0,119.8,0.2,0.0,-90.8,0.0,0.0,-89.8,0.03,0.69
2019/01/09 19:16:55.021,1.2,29.577192,-95.754259,0.0,119.8,0.1,0.0,-90.8,0.0,0.0,-89.9,0.04,0.69
2019/01/09 19:16:55.132,1.3,29.577192,-95.754259,0.0,119.8,0.2,0.0,-90.8,0.0,0.0,-90.0,0.04,0.69
2019/01/09 19:16:55.238,1.4,29.577192,-95.754259,0.0,119.8,0.1,0.0,-90.8,0.0,0.0,-90.1,0.04,0.69
2019/01/09 19:16:55.342,1.5,29.577192,-95.754259,0.0,119.8,0.1,0.0,-90.8,0.0,0.0,-90.1,0.04,0.69
2019/01/09 19:16:55.452,1.6,29.577192,-95.754259,0.0,119.8,0.2,0.0,-90.8,0.0,0.0,-90.2,0.05,0.68
2019/01/09 19:16:55.558,1.7,29.577192,-95.754259,0.0,119.8,0.2,0.0,-90.8,0.0,0.0,-90.2,0.06,0.68
2019/01/09 19:16:55.558,1.8,29.577192,-95.754259,0.0,119.8,0.2,0.0,-90.8,0.0,0.0,-90.3,0.06,0.68
2019/01/09 19:16:55.666,1.9,29.577192,-95.754259,0.0,119.8,0.2,0.0,-90.8,0.0,0.0,-90.3,0.07,0.68
2019/01/09 19:16:55.772,2.0,29.577192,-95.754259,0.0,119.8,0.2,0.0,-90.8,0.0,0.0,-90.3,0.07,0.68
2019/01/09 19:16:55.875,2.1,29.577192,-95.754259,0.0,119.8,0.2,0.0,-90.8,0.0,0.0,-90.3,0.07,0.68
2019/01/09 19:16:55.984,2.2,29.577192,-95.754259,0.0,119.8,0.2,0.0,-90.8,0.0,0.0,-90.4,0.07,0.68
2019/01/09 19:16:56.092,2.3,29.577192,-95.754259,0.0,119.8,0.2,0.0,-90.8,0.0,0.0,-90.4,0.08,0.68
2019/01/09 19:16:56.196,2.4,29.577192,-95.754259,0.0,119.8,0.2,0.0,-90.8,0.0,0.0,-90.4,0.08,0.68
2019/01/09 19:16:56.301,2.5,29.577192,-95.754259,0.0,119.8,0.2,0.0,-90.8,0.0,0.0,-90.4,0.08,0.68
2019/01/09 19:16:56.407,2.6,29.577192,-95.754259,0.0,119.8,0.2,0.0,-90.8,0.0,0.0,-90.4,0.09,0.68
2019/01/09 19:16:56.512,2.7,29.577192,-95.754259,0.0,119.8,0.2,0.0,-90.8,0.0,0.0,-90.4,0.1,0.69
2019/01/09 19:16:56.614,2.8,29.577192,-95.754259,0.0,119.8,0.2,0.0,-90.8,0.0,0.0,-90.4,0.1,0.69
2019/01/09 19:16:56.720,2.9,29.577192,-95.754259,0.0,119.8,0.2,0.0,-90.8,0.0,0.0,-90.4,0.1,0.69
2019/01/09 19:16:56.825,3.0,29.577192,-95.754259,0.0,119.8,0.2,0.0,-90.8,0.0,0.0,-90.5,0.1,0.69
2019/01/09 19:16:56.935,3.1,29.577192,-95.754259,0.0,119.8,0.2,0.0,-90.8,0.0,0.0,-90.5,0.1,0.69
2019/01/09 19:16:57.041,3.2,29.577192,-95.754259,0.0,119.8,0.2,0.0,-90.8,0.0,0.0,-90.5,0.11,0.69
2019/01/09 19:16:57.148,3.3,29.577192,-95.754259,0.0,119.8,0.2,0.0,-90.8,0.0,0.0,-90.5,0.12,0.69
2019/01/09 19:16:57.254,3.4,29.577192,-95.754259,0.0,119.8,0.2,0.0,-90.8,0.0,0.0,-90.5,0.12,0.69
2019/01/09 19:16:57.358,3.5,29.577192,-95.754259,0.0,119.8,0.2,0.0,-90.8,0.0,0.0,-90.5,0.13,0.69
2019/01/09 19:16:57.358,3.6,29.577192,-95.754259,0.0,119.8,0.2,0.0,-90.8,0.0,0.0,-90.5,0.13,0.7
2019/01/09 19:16:57.466,3.7,29.577192,-95.754259,0.0,119.8,0.2,0.0,-90.8,0.0,0.0,-90.5,0.14,0.7
2019/01/09 19:16:57.570,3.8,29.577192,-95.754259,0.0,119.8,0.2,0.0,-90.8,0.0,0.0,-90.5,0.14,0.69
2019/01/09 19:16:57.675,3.9,29.577192,-95.754259,0.0,119.8,0.2,0.0,-90.8,0.0,0.0,-90.5,0.15,0.69
2019/01/09 19:16:57.779,4.0,29.577193,-95.75426,0.0,119.8,0.2,0.0,-90.8,0.0,0.0,-90.5,0.15,0.7
2019/01/09 19:16:57.882,4.1,29.577193,-95.75426,0.0,119.8,0.2,0.0,-90.8,0.0,0.0,-90.5,0.16,0.7
2019/01/09 19:16:57.984,4.2,29.577193,-95.75426,0.0,119.8,0.2,0.0,-90.8,0.0,0.0,-90.5,0.16,0.7
2019/01/09 19:16:58.086,4.3,29.577193,-95.75426,0.0,119.8,0.2,0.0,-90.8,0.0,0.0,-90.5,0.16,0.7
2019/01/09 19:16:58.189,4.4,29.577192,-95.75426,0.0,119.8,0.2,0.0,-90.8,0.0,0.0,-90.5,0.17,0.71
2019/01/09 19:16:58.291,4.5,29.577192,-95.75426,0.0,119.8,0.2,0.0,-90.8,0.0,0.0,-90.5,0.17,0.71
2019/01/09 19:16:58.399,4.6,29.577193,-95.75426,0.0,119.8,0.2,0.0,-90.9,0.0,0.0,-90.5,0.18,0.71
2019/01/09 19:16:58.501,4.7,29.577193,-95.75426,0.0,119.8,0.2,0.0,-90.8,0.0,0.0,-90.5,0.18,0.71
2019/01/09 19:16:58.609,4.8,29.577193,-95.75426,0.0,119.8,0.2,0.0,-90.8,0.0,0.0,-90.5,0.19,0.71
2019/01/09 19:16:58.715,4.9,29.577193,-95.75426,0.0,119.8,0.2,0.0,-90.8,0.0,0.0,-90.5,0.19,0.71
2019/01/09 19:16:58.815,5.0,29.577193,-95.75426,0.0,119.8,0.2,0.0,-90.8,0.0,0.0,-90.5,0.2,0.71
2019/01/09 19:16:58.915,5.1,29.577193,-95.75426,0.0,119.8,0.2,0.0,-90.8,0.0,0.0,-90.5,0.2,0.71
2019/01/09 19:16:59.022,5.2,29.577193,-95.75426,0.0,119.8,0.2,0.0,-90.8,0.0,0.0,-90.5,0.21,0.72
2019/01/09 19:16:59.125,5.3,29.577193,-95.75426,0.0,119.8,0.2,0.0,-90.8,0.0,0.0,-90.5,0.21,0.72
2019/01/09 19:16:59.235,5.4,29.577193,-95.75426,0.0,119.8,0.2,0.0,-90.8,0.0,0.0,-90.5,0.22,0.72
2019/01/09 19:16:59.344,5.5,29.577193,-95.75426,0.0,119.8,0.2,0.0,-90.8,0.0,0.0,-90.5,0.22,0.72
2019/01/09 19:16:59.447,5.6,29.577193,-95.75426,0.0,119.8,0.2,0.0,-90.8,0.0,0.0,-90.5,0.23,0.72
2019/01/09 19:16:59.555,5.7,29.577193,-95.75426,0.0,119.8,0.1,0.0,-90.8,0.0,0.0,-90.5,0.24,0.73
2019/01/09 19:16:59.555,5.8,29.577193,-95.75426,0.0,119.8,0.2,0.0,-90.8,0.0,0.0,-90.5,0.24,0.73
2019/01/09 19:16:59.665,5.9,29.577193,-95.75426,0.0,119.8,0.1,0.0,-90.8,0.0,0.0,-90.5,0.24,0.73
2019/01/09 19:16:59.766,6.0,29.577193,-95.75426,0.0,119.8,0.1,0.0,-90.8,0.0,0.0,-90.5,0.25,0.73
2019/01/09 19:16:59.870,6.1,29.577193,-95.75426,0.0,119.8,0.2,0.0,-90.8,0.0,0.0,-90.5,0.25,0.74
2019/01/09 19:16:59.975,6.2,29.577193,-95.75426,0.0,119.8,0.1,0.0,-90.8,0.0,0.0,-90.5,0.25,0.74
2019/01/09 19:17:00.078,6.3,29.577193,-95.75426,0.0,119.8,0.1,0.0,-90.8,0.0,0.0,-90.5,0.26,0.74
2019/01/09 19:17:00.183,6.4,29.577193,-95.75426,0.0,119.8,0.1,0.0,-90.8,0.0,0.0,-90.5,0.26,0.74
2019/01/09 19:17:00.290,6.5,29.577193,-95.75426,0.0,119.8,0.1,0.0,-90.8,0.0,0.0,-90.5,0.26,0.74
2019/01/09 19:17:00.395,6.6,29.577193,-95.75426,0.0,119.8,0.1,0.0,-90.8,0.0,0.0,-90.5,0.26,0.74
2019/01/09 19:17:00.500,6.7,29.577193,-95.75426,0.0,119.8,0.1,0.0,-90.8,0.0,0.0,-90.5,0.27,0.74
2019/01/09 19:17:00.605,6.8,29.577193,-95.75426,0.0,119.8,0.1,0.0,-90.8,0.0,0.0,-90.5,0.28,0.75
2019/01/09 19:17:00.711,6.9,29.577192,-95.75426,0.0,119.8,0.1,0.0,-90.8,0.0,0.0,-90.5,0.29,0.77
2019/01/09 19:17:00.816,7.0,29.577192,-95.75426,0.0,119.8,0.2,0.0,-90.8,0.0,0.0,-90.5,0.3,0.77
2019/01/09 19:17:00.920,7.1,29.577192,-95.754261,0.0,119.8,0.1,0.0,-90.8,0.0,0.0,-90.5,0.3,0.78
2019/01/09 19:17:01.024,7.2,29.577192,-95.754261,0.0,119.8,0.1,0.0,-90.8,0.0,0.0,-90.5,0.3,0.78
2019/01/09 19:17:01.126,7.3,29.577192,-95.754261,0.0,119.8,0.1,0.0,-90.8,0.0,0.0,-90.5,0.3,0.78
2019/01/09 19:17:01.230,7.4,29.577192,-95.754261,0.0,119.8,0.1,0.0,-90.8,0.0,0.0,-90.5,0.31,0.78
2019/01/09 19:17:01.337,7.5,29.577192,-95.754261,0.0,119.8,0.1,0.0,-90.8,0.0,0.0,-90.5,0.31,0.78
2019/01/09 19:17:01.443,7.6,29.577193,-95.754261,0.0,119.8,0.1,0.0,-90.8,0.0,0.0,-90.5,0.32,0.78
2019/01/09 19:17:01.550,7.7,29.577192,-95.754261,0.0,119.8,0.2,0.0,-90.7,0.0,0.0,-90.5,0.32,0.79
2019/01/09 19:17:01.657,7.8,29.577192,-95.754261,0.0,119.8,0.2,0.0,-90.8,0.0,0.0,-90.5,0.33,0.79
2019/01/09 19:17:01.762,7.9,29.577192,-95.754261,0.0,119.8,0.1,0.0,-90.7,0.0,0.0,-90.5,0.34,0.8
2019/01/09 19:17:01.762,8.0,29.577192,-95.754261,0.0,119.8,0.2,0.0,-90.8,0.0,0.0,-90.5,0.34,0.8
2019/01/09 19:17:01.865,8.1,29.577192,-95.754261,0.0,119.8,0.1,0.0,-90.8,0.0,0.0,-90.5,0.35,0.8
2019/01/09 19:17:01.977,8.2,29.577192,-95.754261,0.0,119.8,0.2,0.0,-90.7,0.0,0.0,-90.5,0.36,0.81
2019/01/09 19:17:02.081,8.3,29.577192,-95.754261,0.0,119.8,0.2,0.0,-90.7,0.0,0.0,-90.5,0.36,0.81
2019/01/09 19:17:02.188,8.4,29.577192,-95.754261,0.0,119.8,0.1,0.0,-90.7,0.0,0.0,-90.5,0.36,0.81
2019/01/09 19:17:02.293,8.5,29.577192,-95.754261,0.0,119.8,0.1,0.0,-90.7,0.0,0.0,-90.5,0.36,0.82
2019/01/09 19:17:02.395,8.6,29.577192,-95.754261,0.0,119.8,0.1,0.0,-90.7,0.0,0.0,-90.5,0.37,0.82
2019/01/09 19:17:02.497,8.7,29.577192,-95.754261,0.0,119.8,0.1,0.0,-90.7,0.0,0.0,-90.5,0.38,0.83
2019/01/09 19:17:02.599,8.8,29.577192,-95.754261,0.0,119.8,0.2,0.0,-90.7,0.0,0.0,-90.5,0.39,0.83
2019/01/09 19:17:02.703,8.9,29.577192,-95.754261,0.0,119.8,0.2,0.0,-90.7,0.0,0.0,-90.5,0.39,0.84
2019/01/09 19:17:02.806,9.0,29.577192,-95.754261,0.0,119.8,0.2,0.0,-90.7,0.0,0.0,-90.5,0.39,0.84
2019/01/09 19:17:02.910,9.1,29.577192,-95.754261,0.0,119.8,0.2,0.0,-90.8,0.0,0.0,-90.5,0.41,0.85
2019/01/09 19:17:03.016,9.2,29.577192,-95.754261,0.0,119.8,0.2,0.0,-90.7,0.0,0.0,-90.5,0.41,0.85
2019/01/09 19:17:03.123,9.3,29.577192,-95.754261,0.0,119.8,0.2,0.0,-90.7,0.0,0.0,-90.5,0.42,0.86
2019/01/09 19:17:03.226,9.4,29.577192,-95.754261,0.0,119.8,0.2,0.0,-90.7,0.0,0.0,-90.5,0.42,0.86
2019/01/09 19:17:03.334,9.5,29.577192,-95.754261,0.0,119.8,0.2,0.0,-90.7,0.0,0.0,-90.5,0.42,0.86
2019/01/09 19:17:03.438,9.6,29.577192,-95.754261,0.0,119.8,0.2,0.0,-90.7,0.0,0.0,-90.5,0.43,0.87
2019/01/09 19:17:03.546,9.7,29.577192,-95.754261,0.0,119.8,0.2,0.0,-90.7,0.0,0.0,-90.5,0.43,0.87
2019/01/09 19:17:03.655,9.8,29.577192,-95.754261,0.0,119.8,0.2,0.0,-90.7,0.0,0.0,-90.5,0.44,0.88
2019/01/09 19:17:03.759,9.9,29.577192,-95.754261,0.0,119.8,0.2,0.0,-90.7,0.0,0.0,-90.5,0.44,0.88
2019/01/09 19:17:03.759,10.0,29.577192,-95.754261,0.0,119.8,0.2,0.0,-90.7,0.0,0.0,-90.5,0.44,0.89
2019/01/09 19:17:03.866,10.1,29.577192,-95.754261,0.0,119.8,0.2,0.0,-90.7,0.0,0.0,-90.5,0.45,0.89
2019/01/09 19:17:03.972,10.2,29.577192,-95.754261,0.0,119.8,0.2,0.0,-90.7,0.0,0.0,-90.5,0.46,0.89
2019/01/09 19:17:04.073,10.3,29.577192,-95.754262,0.0,119.8,0.2,0.0,-90.7,0.0,0.0,-90.5,0.47,0.9
2019/01/09 19:17:04.180,10.4,29.577192,-95.754262,0.0,119.8,0.2,0.0,-90.7,0.0,0.0,-90.5,0.47,0.9
2019/01/09 19:17:04.285,10.5,29.577192,-95.754262,0.0,119.8,0.2,0.0,-90.7,0.0,0.0,-90.5,0.48,0.9
2019/01/09 19:17:04.393,10.6,29.577192,-95.754262,0.0,119.8,0.2,0.0,-90.7,0.0,0.0,-90.5,0.48,0.91
2019/01/09 19:17:04.495,10.7,29.577192,-95.754262,0.0,119.8,0.2,0.0,-90.7,0.0,0.0,-90.5,0.48,0.91
2019/01/09 19:17:04.604,10.8,29.577192,-95.754261,0.0,119.8,0.2,0.0,-90.7,0.0,0.0,-90.5,0.5,0.9
2019/01/09 19:17:04.705,10.9,29.577192,-95.754262,0.0,119.8,0.2,0.0,-90.7,0.0,0.0,-90.5,0.5,0.9
2019/01/09 19:17:04.814,11.0,29.577192,-95.754262,0.0,119.8,0.2,0.0,-90.7,0.0,0.0,-90.5,0.5,0.9
2019/01/09 19:17:04.922,11.1,29.577192,-95.754262,0.0,119.8,0.2,0.0,-90.7,0.0,0.0,-90.5,0.5,0.91
2019/01/09 19:17:05.026,11.2,29.577192,-95.754262,0.0,119.8,0.2,0.0,-90.7,0.0,0.0,-90.5,0.51,0.91
2019/01/09 19:17:05.138,11.3,29.577192,-95.754262,0.0,119.8,0.0,0.0,-90.8,0.0,0.0,-90.5,0.51,0.91
2019/01/09 19:17:05.246,11.4,29.577192,-95.754262,0.0,119.8,-0.5,0.0,-90.8,0.0,0.0,-90.5,0.52,0.92
2019/01/09 19:17:05.348,11.5,29.577192,-95.754262,0.0,119.8,-1.7,-0.5,-91.0,0.0,0.0,-90.5,0.52,0.92
2019/01/09 19:17:05.455,11.6,29.577192,-95.754262,0.0,119.8,-2.8,-2.3,-91.0,0.0,0.0,-90.5,0.53,0.93
2019/01/09 19:17:05.558,11.7,29.577192,-95.754262,0.0,119.8,-2.1,-2.3,-90.9,0.0,0.0,-90.5,0.56,0.95
2019/01/09 19:17:05.665,11.8,29.577191,-95.754262,0.0,119.8,0.0,0.0,-90.9,0.0,0.0,-90.5,0.59,0.99
2019/01/09 19:17:05.769,11.9,29.577191,-95.754263,0.1,119.9,1.5,1.6,-91.1,0.0,0.0,-90.5,0.63,1.03
2019/01/09 19:17:05.769,12.0,29.577191,-95.754263,0.2,120.0,2.6,3.1,-91.1,0.0,0.0,-90.5,0.63,1.08
2019/01/09 19:17:05.873,12.1,29.57719,-95.754263,0.4,120.2,2.8,3.6,-91.1,0.0,0.0,-90.5,0.73,1.12
2019/01/09 19:17:05.978,12.2,29.57719,-95.754264,0.5,120.3,3.7,6.4,-91.0,0.0,0.0,-90.4,0.77,1.17
2019/01/09 19:17:06.082,12.3,29.57719,-95.754264,0.7,120.5,4.7,8.7,-90.5,0.0,0.0,-89.7,0.82,0.28
2019/01/09 19:17:06.192,12.4,29.57719,-95.754264,0.9,120.7,4.8,10.0,-89.0,0.0,0.0,-88.6,0.87,0.33
2019/01/09 19:17:06.297,12.5,29.57719,-95.754265,1.1,120.9,3.9,10.8,-86.6,0.0,0.0,-87.2,0.94,0.39
2019/01/09 19:17:06.404,12.6,29.57719,-95.754265,1.2,121.0,3.1,11.3,-83.7,0.0,0.0,-85.4,0.96,0.4
2019/01/09 19:17:06.509,12.7,29.57719,-95.754266,1.3,121.1,2.3,12.4,-79.9,0.0,0.0,-82.7,0.98,0.42
2019/01/09 19:17:06.616,12.8,29.57719,-95.754266,1.4,121.2,0.5,12.3,-75.6,0.0,0.0,-79.2,1.02,0.45
2019/01/09 19:17:06.717,12.9,29.57719,-95.754266,1.4,121.2,-0.3,12.3,-71.9,0.0,0.0,-75.6,1.06,0.48
2019/01/09 19:17:06.823,13.0,29.57719,-95.754266,1.5,121.3,-1.8,12.2,-68.9,0.0,0.0,-72.2,1.09,0.48
2019/01/09 19:17:06.927,13.1,29.57719,-95.754267,1.5,121.3,-2.8,12.4,-66.5,0.0,0.0,-69.3,1.12,0.48
2019/01/09 19:17:07.032,13.2,29.577191,-95.754267,1.6,121.4,-2.9,12.6,-63.5,0.0,0.0,-69.3,1.17,0.48
2019/01/09 19:17:07.137,13.3,29.577191,-95.754267,1.7,121.5,-4.3,14.5,-60.8,0.0,0.0,-66.3,1.22,0.49
2019/01/09 19:17:07.238,13.4,29.577192,-95.754267,1.7,121.5,-7.0,16.0,-58.9,0.0,0.0,-63.4,1.29,0.49
2019/01/09 19:17:07.344,13.5,29.577193,-95.754267,1.8,121.6,-9.4,16.8,-57.5,0.0,0.0,-60.8,1.37,0.49
2019/01/09 19:17:07.447,13.6,29.577193,-95.754267,1.9,121.7,-10.2,17.0,-55.9,0.0,0.0,-58.5,1.48,0.52
2019/01/09 19:17:07.553,13.7,29.577195,-95.754266,2.0,121.8,-11.1,17.4,-54.0,0.0,0.0,-56.1,1.62,0.56
2019/01/09 19:17:07.553,13.8,29.577196,-95.754266,2.1,121.9,-11.6,17.0,-51.8,0.0,0.0,-53.7,1.62,0.67
2019/01/09 19:17:07.764,13.9,29.577198,-95.754266,2.1,121.9,-12.0,16.7,-49.6,0.0,0.0,-51.3,1.95,0.8
2019/01/09 19:17:07.764,14.0,29.5772,-95.754266,2.2,122.0,-12.6,16.5,-47.5,0.0,0.0,-49.0,1.95,0.97
2019/01/09 19:17:07.864,14.1,29.577201,-95.754266,2.3,122.1,-12.7,15.8,-45.4,0.0,0.0,-47.1,2.36,1.16
2019/01/09 19:17:07.966,14.2,29.577204,-95.754266,2.4,122.2,-13.6,16.0,-43.9,0.0,0.0,-45.3,2.61,1.38
2019/01/09 19:17:08.070,14.3,29.577206,-95.754265,2.4,122.2,-14.4,15.9,-42.7,0.0,0.0,-43.6,2.85,1.61
2019/01/09 19:17:08.175,14.4,29.577208,-95.754265,2.5,122.3,-15.5,15.7,-41.4,0.0,0.0,-42.2,3.13,1.88
2019/01/09 19:17:08.283,14.5,29.577211,-95.754265,2.6,122.4,-16.1,15.9,-40.4,0.0,0.0,-41.0,3.41,2.15
2019/01/09 19:17:08.388,14.6,29.577214,-95.754265,2.7,122.5,-15.9,15.5,-39.4,0.0,0.0,-39.9,3.72,2.45
2019/01/09 19:17:08.497,14.7,29.577216,-95.754264,2.7,122.5,-15.7,15.9,-38.3,0.0,0.0,-38.8,4.04,2.76
2019/01/09 19:17:08.604,14.8,29.577219,-95.754264,2.8,122.6,-15.3,16.8,-37.0,0.0,0.0,-37.5,4.38,3.1
2019/01/09 19:17:08.707,14.9,29.577223,-95.754264,2.9,122.7,-15.6,16.8,-35.9,0.0,0.0,-36.1,4.73,3.44
2019/01/09 19:17:08.808,15.0,29.577226,-95.754263,2.9,122.7,-16.1,17.0,-34.9,0.0,0.0,-34.7,5.13,3.84
2019/01/09 19:17:08.914,15.1,29.57723,-95.754263,3.0,122.8,-15.8,16.7,-33.7,0.0,0.0,-34.7,5.52,4.22
2019/01/09 19:17:09.015,15.2,29.577233,-95.754263,3.1,122.9,-16.1,17.5,-32.4,0.0,0.0,-33.3,5.93,4.63
2019/01/09 19:17:09.115,15.3,29.577237,-95.754262,3.1,122.9,-15.7,17.9,-30.7,0.0,0.0,-31.7,6.34,5.04
2019/01/09 19:17:09.225,15.4,29.577241,-95.754262,3.2,123.0,-15.6,18.1,-29.1,0.0,0.0,-30.1,6.79,5.47
2019/01/09 19:17:09.328,15.5,29.577245,-95.754261,3.3,123.1,-16.0,19.3,-28.0,0.0,0.0,-28.9,7.23,5.91
2019/01/09 19:17:09.430,15.6,29.577249,-95.75426,3.3,123.1,-16.7,18.9,-27.4,0.0,0.0,-27.5,7.72,6.4
2019/01/09 19:17:09.531,15.7,29.577253,-95.754259,3.4,123.2,-16.8,18.2,-26.6,0.0,0.0,-26.2,8.2,6.87
2019/01/09 19:17:09.643,15.8,29.577258,-95.754258,3.5,123.3,-16.9,17.6,-25.8,0.0,0.0,-25.0,8.72,7.38
2019/01/09 19:17:09.749,15.9,29.577263,-95.754256,3.5,123.3,-16.9,16.7,-25.1,0.0,0.0,-24.4,9.24,7.88
2019/01/09 19:17:09.749,16.0,29.577267,-95.754255,3.6,123.4,-18.1,16.9,-24.9,0.0,0.0,-23.9,9.24,8.43
2019/01/09 19:17:09.853,16.1,29.577272,-95.754253,3.6,123.4,-17.5,16.8,-24.6,0.0,0.0,-23.3,10.35,8.97
2019/01/09 19:17:09.957,16.2,29.577277,-95.754251,3.7,123.5,-17.1,16.2,-24.3,0.0,0.0,-23.0,10.95,9.56
2019/01/09 19:17:10.059,16.3,29.577283,-95.754249,3.8,123.6,-17.6,15.3,-24.3,0.0,0.0,-22.7,11.56,10.15
2019/01/09 19:17:10.168,16.4,29.577288,-95.754247,3.9,123.7,-18.9,14.4,-24.3,0.0,0.0,-22.5,12.19,10.77
2019/01/09 19:17:10.275,16.5,29.577293,-95.754245,4.0,123.8,-20.1,13.7,-24.3,0.0,0.0,-22.2,12.81,11.38
2019/01/09 19:17:10.379,16.6,29.577299,-95.754243,4.2,124.0,-20.9,13.7,-24.3,0.0,0.0,-22.1,13.47,12.03
2019/01/09 19:17:10.484,16.7,29.577305,-95.754242,4.3,124.1,-19.9,13.2,-23.9,0.0,0.0,-21.9,14.13,12.68
2019/01/09 19:17:10.587,16.8,29.577311,-95.754239,4.4,124.2,-19.5,13.6,-23.6,0.0,0.0,-21.7,14.84,13.38
2019/01/09 19:17:10.691,16.9,29.577316,-95.754237,4.4,124.2,-19.3,13.7,-23.6,0.0,0.0,-21.5,15.51,14.04
2019/01/09 19:17:10.797,17.0,29.577323,-95.754235,4.5,124.3,-19.4,13.9,-23.7,0.0,0.0,-21.3,16.21,14.74
2019/01/09 19:17:10.902,17.1,29.577328,-95.754234,4.5,124.3,-19.7,13.2,-23.8,0.0,0.0,-21.2,16.86,15.38
2019/01/09 19:17:11.008,17.2,29.577334,-95.754231,4.6,124.4,-19.2,12.8,-23.6,0.0,0.0,-21.2,17.59,16.11
2019/01/09 19:17:11.109,17.3,29.577341,-95.754229,4.6,124.4,-18.8,12.6,-23.6,0.0,0.0,-21.1,18.3,16.82
2019/01/09 19:17:11.216,17.4,29.577347,-95.754227,4.7,124.5,-18.8,12.4,-23.6,0.0,0.0,-21.1,19.07,17.58
2019/01/09 19:17:11.320,17.5,29.577354,-95.754225,4.7,124.5,-18.5,12.6,-23.6,0.0,0.0,-21.0,19.82,18.32
2019/01/09 19:17:11.428,17.6,29.577361,-95.754223,4.7,124.5,-18.0,12.4,-23.7,0.0,0.0,-21.0,20.64,19.14
2019/01/09 19:17:11.532,17.7,29.577367,-95.754221,4.7,124.5,-18.3,12.6,-23.8,0.0,0.0,-20.9,21.41,19.9
2019/01/09 19:17:11.634,17.8,29.577374,-95.754218,4.7,124.5,-18.2,12.5,-23.7,0.0,0.0,-20.9,22.21,20.7
2019/01/09 19:17:11.734,17.9,29.577381,-95.754216,4.7,124.5,-17.2,12.0,-23.5,0.0,0.0,-20.8,22.99,21.48
2019/01/09 19:17:11.837,18.0,29.577389,-95.754214,4.7,124.5,-16.8,12.1,-23.3,0.0,0.0,-20.8,23.83,22.32
2019/01/09 19:17:11.945,18.1,29.577396,-95.754212,4.7,124.5,-16.5,12.2,-23.2,0.0,0.0,-20.8,24.64,23.12
2019/01/09 19:17:12.047,18.2,29.577403,-95.75421,4.8,124.6,-16.6,12.7,-23.3,0.0,0.0,-20.7,25.48,23.95
2019/01/09 19:17:12.047,18.3,29.57741,-95.754208,4.9,124.7,-16.4,13.4,-23.3,0.0,0.0,-20.5,25.48,24.77
2019/01/09 19:17:12.159,18.4,29.577417,-95.754205,4.9,124.7,-15.8,14.4,-22.4,0.0,0.0,-19.7,27.15,25.62
2019/01/09 19:17:12.268,18.5,29.577425,-95.754203,5.0,124.8,-14.7,15.3,-20.2,0.0,0.0,-18.2,28.01,26.47
2019/01/09 19:17:12.369,18.6,29.577433,-95.754201,5.1,124.9,-13.6,16.5,-16.9,0.0,0.0,-16.0,28.93,27.39
2019/01/09 19:17:12.470,18.7,29.57744,-95.754198,5.1,124.9,-12.9,16.6,-13.7,0.0,0.0,-13.4,29.81,28.27
2019/01/09 19:17:12.573,18.8,29.577449,-95.754195,5.2,125.0,-13.3,16.3,-10.5,0.0,0.0,-10.3,30.8,29.25
2019/01/09 19:17:12.683,18.9,29.577456,-95.754192,5.2,125.0,-12.6,16.3,-7.0,0.0,0.0,-6.8,31.68,30.12
2019/01/09 19:17:12.790,19.0,29.577464,-95.754189,5.3,125.1,-13.0,16.3,-3.4,0.0,0.0,-3.2,32.59,31.03
2019/01/09 19:17:12.896,19.1,29.577471,-95.754186,5.3,125.1,-12.7,15.8,-0.2,0.0,0.0,-0.2,33.45,31.88
2019/01/09 19:17:13.006,19.2,29.577479,-95.754182,5.4,125.2,-13.0,14.9,2.3,0.0,0.0,-0.2,34.34,32.76
2019/01/09 19:17:13.115,19.3,29.577485,-95.754178,5.4,125.2,-13.4,14.7,4.6,0.0,0.0,2.3,35.17,33.56
2019/01/09 19:17:13.222,19.4,29.577493,-95.754174,5.5,125.3,-12.9,13.8,6.0,0.0,0.0,4.1,36.13,34.51
2019/01/09 19:17:13.328,19.5,29.577501,-95.75417,5.7,125.5,-12.7,13.4,6.3,0.0,0.0,5.2,37.03,35.39
2019/01/09 19:17:13.438,19.6,29.577508,-95.754166,6.0,125.8,-12.9,12.1,6.4,0.0,0.0,5.9,37.95,36.29
2019/01/09 19:17:13.545,19.7,29.577515,-95.754161,6.2,126.0,-12.8,11.0,6.2,0.0,0.0,6.2,38.89,37.19
2019/01/09 19:17:13.647,19.8,29.577523,-95.754157,6.5,126.3,-13.6,11.8,5.8,0.0,0.0,6.4,39.81,38.09
2019/01/09 19:17:13.749,19.9,29.57753,-95.754153,6.8,126.6,-14.0,13.3,5.5,0.0,0.0,6.6,40.68,38.94
2019/01/09 19:17:13.851,20.0,29.577537,-95.754148,7.1,126.9,-13.3,14.0,5.6,0.0,0.0,6.7,41.57,39.8
2019/01/09 19:17:13.955,20.1,29.577543,-95.754144,7.4,127.2,-12.5,14.1,5.7,0.0,0.0,6.8,42.36,40.57
2019/01/09 19:17:13.955,20.2,29.57755,-95.754139,7.6,127.4,-11.8,13.8,5.9,0.0,0.0,7.0,42.36,41.44
2019/01/09 19:17:14.058,20.3,29.577556,-95.754135,7.9,127.7,-12.2,13.9,5.7,0.0,0.0,7.0,44.12,42.27
2019/01/09 19:17:14.271,20.4,29.577563,-95.75413,8.0,127.8,-13.1,14.7,5.6,0.0,0.0,7.1,45.0,43.14
2019/01/09 19:17:14.271,20.5,29.57757,-95.754127,8.2,128.0,-11.1,13.9,6.0,0.0,0.0,7.2,45.0,43.97
2019/01/09 19:17:14.380,20.6,29.577577,-95.754122,8.4,128.2,-9.5,12.8,6.6,0.0,0.0,7.2,46.71,44.81
2019/01/09 19:17:14.487,20.7,29.577583,-95.754118,8.5,128.3,-10.1,11.4,6.7,0.0,0.0,7.3,47.52,45.59
2019/01/09 19:17:14.588,20.8,29.577589,-95.754113,8.5,128.3,-7.5,8.9,7.4,0.0,0.0,7.3,48.34,46.39
2019/01/09 19:17:14.699,20.9,29.577595,-95.754109,8.5,128.3,-5.4,7.5,7.7,0.0,0.0,7.4,49.11,47.14
2019/01/09 19:17:14.800,21.0,29.577602,-95.754105,8.5,128.3,-5.1,5.5,7.6,0.0,0.0,7.4,49.9,47.91
2019/01/09 19:17:14.910,21.1,29.577607,-95.754101,8.5,128.3,-0.5,3.2,7.6,0.0,0.0,7.4,50.64,48.63
2019/01/09 19:17:15.022,21.2,29.577613,-95.754097,8.5,128.3,23.1,-10.5,5.3,0.0,0.0,7.5,51.4,49.37
2019/01/09 19:17:15.128,21.3,29.577618,-95.754093,8.5,128.3,25.3,-13.9,4.5,0.0,0.0,7.5,52.08,50.02
2019/01/09 19:17:15.235,21.4,29.577623,-95.754089,8.5,128.3,23.3,-11.7,5.0,0.0,0.0,7.7,52.76,50.68
2019/01/09 19:17:15.342,21.5,29.577627,-95.754086,8.4,128.2,24.3,-12.6,4.6,0.0,0.0,7.8,53.34,51.24
2019/01/09 19:17:15.342,21.6,29.577632,-95.754083,8.5,128.3,22.7,-11.6,4.9,0.0,0.0,7.9,53.34,51.77
2019/01/09 19:17:15.450,21.7,29.577635,-95.75408,8.5,128.3,22.8,-12.4,4.7,0.0,0.0,7.9,54.35,52.21
2019/01/09 19:17:15.556,21.8,29.577638,-95.754078,8.5,128.3,23.0,-12.6,4.6,0.0,0.0,8.0,54.7,52.55
2019/01/09 19:17:15.660,21.9,29.57764,-95.754076,8.5,128.3,23.0,-11.3,5.0,0.0,0.0,8.1,55.05,52.89
2019/01/09 19:17:15.765,22.0,29.577643,-95.754074,8.5,128.3,23.6,-11.6,5.0,0.0,0.0,8.2,55.38,53.21
2019/01/09 19:17:15.874,22.1,29.577645,-95.754073,8.5,128.3,23.3,-11.4,5.1,0.0,0.0,8.2,55.62,53.46
2019/01/09 19:17:15.979,22.2,29.577646,-95.754072,8.5,128.3,22.7,-10.7,5.1,0.0,0.0,8.2,55.76,53.58
2019/01/09 19:17:16.081,22.3,29.577647,-95.754071,8.5,128.3,20.4,-8.8,5.7,0.0,0.0,8.3,55.89,53.71
2019/01/09 19:17:16.189,22.4,29.577647,-95.754071,8.5,128.3,14.4,-4.7,6.9,0.0,0.0,8.3,55.97,53.8
2019/01/09 19:17:16.292,22.5,29.577648,-95.754071,8.5,128.3,6.0,-2.8,7.9,0.0,0.0,8.3,56.02,53.84
2019/01/09 19:17:16.397,22.6,29.577648,-95.75407,8.5,128.3,-0.7,-1.1,8.4,0.0,0.0,8.3,56.05,53.86
2019/01/09 19:17:16.504,22.7,29.577648,-95.75407,8.5,128.3,-3.5,-0.2,8.4,0.0,0.0,8.3,56.08,53.86
2019/01/09 19:17:16.614,22.8,29.577648,-95.75407,8.6,128.4,-4.4,0.0,8.3,0.0,0.0,8.3,56.1,53.86
2019/01/09 19:17:16.724,22.9,29.577648,-95.75407,8.7,128.5,-4.8,0.4,8.2,0.0,0.0,8.3,56.11,53.87
2019/01/09 19:17:16.830,23.0,29.577648,-95.75407,8.9,128.7,-4.9,0.8,8.1,0.0,0.0,8.3,56.11,53.87
2019/01/09 19:17:16.930,23.1,29.577648,-95.754069,9.1,128.9,-4.5,0.7,8.1,0.0,0.0,8.3,56.15,53.9
2019/01/09 19:17:17.035,23.2,29.577648,-95.754069,9.3,129.1,-3.5,0.5,8.1,0.0,0.0,8.3,56.16,53.91
2019/01/09 19:17:17.138,23.3,29.577648,-95.754069,9.4,129.2,-2.9,0.6,8.1,0.0,0.0,8.3,56.18,53.93
2019/01/09 19:17:17.244,23.4,29.577648,-95.754069,9.6,129.4,-2.8,0.5,8.0,0.0,0.0,8.3,56.21,53.96
2019/01/09 19:17:17.355,23.5,29.577649,-95.754069,9.8,129.6,-3.2,0.7,8.0,0.0,0.0,8.3,56.23,53.98
2019/01/09 19:17:17.355,23.6,29.577649,-95.754069,9.9,129.7,-3.4,3.6,7.8,0.0,0.0,8.3,56.23,54.02
2019/01/09 19:17:17.462,23.7,29.577649,-95.754069,10.0,129.8,-3.4,10.5,7.7,0.0,0.0,8.3,56.29,54.03
2019/01/09 19:17:17.565,23.8,29.577649,-95.754068,10.1,129.9,-3.6,16.8,7.4,0.0,0.0,8.3,56.31,54.04
2019/01/09 19:17:17.669,23.9,29.577649,-95.754068,10.2,130.0,-3.9,20.1,7.2,0.0,0.0,8.3,56.36,54.07
2019/01/09 19:17:17.776,24.0,29.577649,-95.754067,10.3,130.1,-3.8,21.5,7.1,0.0,0.0,8.3,56.43,54.08
2019/01/09 19:17:17.879,24.1,29.577649,-95.754066,10.4,130.2,-4.0,22.5,7.0,0.0,0.0,8.3,56.53,54.1
2019/01/09 19:17:17.983,24.2,29.577649,-95.754065,10.5,130.3,-4.1,22.7,7.0,0.0,0.0,8.3,56.67,54.13
2019/01/09 19:17:18.092,24.3,29.577648,-95.754063,10.6,130.4,-4.0,22.0,7.1,0.0,0.0,8.3,56.84,54.16
2019/01/09 19:17:18.195,24.4,29.577648,-95.754061,10.7,130.5,-4.4,21.3,7.1,0.0,0.0,8.3,57.07,54.22
2019/01/09 19:17:18.299,24.5,29.577648,-95.754058,10.8,130.6,-4.3,21.2,7.1,0.0,0.0,8.3,57.31,54.27
2019/01/09 19:17:18.409,24.6,29.577647,-95.754055,10.9,130.7,-3.9,20.6,7.2,0.0,0.0,8.3,57.6,54.33
2019/01/09 19:17:18.519,24.7,29.577647,-95.754052,11.0,130.8,-4.2,20.8,7.1,0.0,0.0,8.3,57.9,54.4
2019/01/09 19:17:18.623,24.8,29.577646,-95.754048,11.1,130.9,-4.2,20.9,7.0,0.0,0.0,8.4,58.28,54.48
2019/01/09 19:17:18.729,24.9,29.577646,-95.754045,11.3,131.1,-3.9,20.6,7.0,0.0,0.0,8.4,58.63,54.56
2019/01/09 19:17:18.834,25.0,29.577645,-95.754041,11.4,131.2,-3.9,20.4,7.0,0.0,0.0,8.4,59.02,54.65
2019/01/09 19:17:18.940,25.1,29.577645,-95.754037,11.5,131.3,-3.2,19.4,7.2,0.0,0.0,8.3,59.42,54.75
2019/01/09 19:17:19.044,25.2,29.577644,-95.754032,11.7,131.5,-3.5,19.1,7.2,0.0,0.0,8.3,59.86,54.86
2019/01/09 19:17:19.144,25.3,29.577643,-95.754028,11.8,131.6,-4.5,19.2,7.0,0.0,0.0,8.3,60.31,54.97
2019/01/09 19:17:19.247,25.4,29.577643,-95.754023,11.9,131.7,-5.8,18.7,6.7,0.0,0.0,8.4,60.81,55.1
2019/01/09 19:17:19.351,25.5,29.577642,-95.754018,12.1,131.9,-5.6,18.3,6.7,0.0,0.0,8.4,61.3,55.23
2019/01/09 19:17:19.351,25.6,29.577641,-95.754012,12.3,132.1,-4.8,18.6,7.0,0.0,0.0,8.4,61.3,55.34
2019/01/09 19:17:19.454,25.7,29.57764,-95.754007,12.5,132.3,-5.1,19.6,7.0,0.0,0.0,8.4,62.35,55.48
2019/01/09 19:17:19.559,25.8,29.577639,-95.754001,12.6,132.4,-6.1,20.1,6.7,0.0,0.0,8.4,62.91,55.63
2019/01/09 19:17:19.659,25.9,29.577638,-95.753996,12.8,132.6,-6.2,19.5,6.6,0.0,0.0,8.4,63.46,55.78
2019/01/09 19:17:19.769,26.0,29.577637,-95.75399,12.9,132.7,-6.5,20.9,6.5,0.0,0.0,8.4,64.06,55.96
2019/01/09 19:17:19.877,26.1,29.577636,-95.753984,13.1,132.9,-7.0,21.1,6.4,0.0,0.0,8.4,64.61,56.15
2019/01/09 19:17:19.987,26.2,29.577635,-95.753978,13.2,133.0,-6.7,20.5,6.5,0.0,0.0,8.4,65.23,56.34
2019/01/09 19:17:20.092,26.3,29.577634,-95.753972,13.4,133.2,-6.9,20.3,6.4,0.0,0.0,8.5,65.84,56.54
2019/01/09 19:17:20.196,26.4,29.577633,-95.753965,13.6,133.4,-7.0,20.4,6.5,0.0,0.0,8.5,66.51,56.76
2019/01/09 19:17:20.303,26.5,29.577632,-95.753958,13.7,133.5,-6.6,20.1,6.6,0.0,0.0,8.5,67.14,56.96
2019/01/09 19:17:20.409,26.6,29.577631,-95.753951,13.9,133.7,-6.7,20.4,6.6,0.0,0.0,8.5,67.84,57.22
2019/01/09 19:17:20.514,26.7,29.57763,-95.753944,14.1,133.9,-6.9,20.4,6.5,0.0,0.0,8.5,68.51,57.48
2019/01/09 19:17:20.620,26.8,29.577628,-95.753937,14.3,134.1,-7.1,20.5,6.6,0.0,0.0,8.5,69.24,57.76
2019/01/09 19:17:20.725,26.9,29.577627,-95.75393,14.4,134.2,-7.1,20.2,6.7,0.0,0.0,8.5,69.95,58.03
2019/01/09 19:17:20.829,27.0,29.577626,-95.753922,14.6,134.4,-7.7,20.1,6.5,0.0,0.0,8.5,70.69,58.33
2019/01/09 19:17:20.934,27.1,29.577625,-95.753915,14.7,134.5,-7.9,20.3,6.6,0.0,0.0,8.6,71.42,58.62
2019/01/09 19:17:21.043,27.2,29.577623,-95.753907,14.9,134.7,-8.5,20.2,6.4,0.0,0.0,8.6,72.21,58.94
2019/01/09 19:17:21.149,27.3,29.577622,-95.753899,15.1,134.9,-8.9,20.6,6.4,0.0,0.0,8.8,72.96,59.23
2019/01/09 19:17:21.249,27.4,29.57762,-95.753891,15.2,135.0,-9.2,20.6,6.6,0.0,0.0,9.4,73.77,59.58
2019/01/09 19:17:21.249,27.5,29.577619,-95.753883,15.3,135.1,-9.2,20.0,7.5,0.0,0.0,10.5,73.77,59.93
2019/01/09 19:17:21.357,27.6,29.577618,-95.753875,15.5,135.3,-9.8,19.7,9.3,0.0,0.0,11.8,75.38,60.32
2019/01/09 19:17:21.468,27.7,29.577616,-95.753866,15.7,135.5,-10.7,18.5,11.6,0.0,0.0,11.8,76.19,60.7
2019/01/09 19:17:21.570,27.8,29.577615,-95.753858,15.8,135.6,-11.8,17.3,13.9,0.0,0.0,13.5,77.05,61.1
2019/01/09 19:17:21.680,27.9,29.577613,-95.753849,15.9,135.7,-12.0,16.1,16.6,0.0,0.0,15.6,77.87,61.5
2019/01/09 19:17:21.787,28.0,29.577612,-95.75384,16.0,135.8,-12.4,14.7,19.7,0.0,0.0,18.2,78.75,61.94
2019/01/09 19:17:21.892,28.1,29.57761,-95.753832,16.1,135.9,-12.2,12.2,23.4,0.0,0.0,21.1,79.59,62.37
2019/01/09 19:17:21.995,28.2,29.577609,-95.753823,16.1,135.9,-12.0,10.7,26.9,0.0,0.0,23.8,80.48,62.82
2019/01/09 19:17:22.102,28.3,29.577607,-95.753814,16.3,136.1,-12.8,10.3,29.7,0.0,0.0,26.7,81.32,63.26
2019/01/09 19:17:22.213,28.4,29.577606,-95.753806,16.4,136.2,-12.6,10.4,32.3,0.0,0.0,29.3,82.18,63.73
2019/01/09 19:17:22.317,28.5,29.577604,-95.753797,16.5,136.3,-12.5,11.1,34.1,0.0,0.0,31.4,83.0,64.18
2019/01/09 19:17:22.424,28.6,29.577603,-95.753789,16.7,136.5,-11.6,11.2,35.8,0.0,0.0,33.4,83.83,64.64
2019/01/09 19:17:22.530,28.7,29.577602,-95.753781,16.9,136.7,-11.1,10.9,37.3,0.0,0.0,35.0,84.65,65.11
2019/01/09 19:17:22.635,28.8,29.5776,-95.753772,16.9,136.7,-10.8,10.9,38.5,0.0,0.0,36.5,85.53,65.6
2019/01/09 19:17:22.738,28.9,29.577598,-95.753763,17.0,136.8,-11.3,11.0,39.5,0.0,0.0,37.8,86.36,66.07
2019/01/09 19:17:22.845,29.0,29.577597,-95.753755,17.1,136.9,-10.9,11.2,40.8,0.0,0.0,39.1,87.23,66.57
2019/01/09 19:17:22.949,29.1,29.577595,-95.753746,17.2,137.0,-10.9,11.7,42.0,0.0,0.0,40.4,88.07,67.05
2019/01/09 19:17:22.949,29.2,29.577593,-95.753737,17.4,137.2,-11.1,12.1,43.0,0.0,0.0,41.7,88.07,67.56
2019/01/09 19:17:23.055,29.3,29.577591,-95.753729,17.5,137.3,-10.4,12.4,44.2,0.0,0.0,42.9,89.8,68.05
2019/01/09 19:17:23.158,29.4,29.577589,-95.75372,17.7,137.5,-9.3,12.1,45.1,0.0,0.0,44.0,90.68,68.54
2019/01/09 19:17:23.267,29.5,29.577587,-95.753711,17.9,137.7,-9.9,11.8,45.8,0.0,0.0,45.0,91.56,69.02
2019/01/09 19:17:23.372,29.6,29.577585,-95.753703,18.0,137.8,-9.9,11.7,46.6,0.0,0.0,45.9,92.43,69.52
2019/01/09 19:17:23.474,29.7,29.577582,-95.753694,18.1,137.9,-9.8,11.6,47.3,0.0,0.0,46.8,93.27,70.0
2019/01/09 19:17:23.579,29.8,29.57758,-95.753686,18.2,138.0,-8.9,11.4,48.0,0.0,0.0,46.8,94.16,70.52
2019/01/09 19:17:23.684,29.9,29.577578,-95.753677,18.4,138.2,-8.7,11.7,48.8,0.0,0.0,47.6,95.0,71.0
2019/01/09 19:17:23.791,30.0,29.577575,-95.753669,18.5,138.3,-9.1,11.1,49.5,0.0,0.0,48.3,95.85,71.5
2019/01/09 19:17:23.902,30.1,29.577573,-95.753661,18.6,138.4,-8.9,10.0,50.4,0.0,0.0,48.9,96.68,71.98
2019/01/09 19:17:24.006,30.2,29.57757,-95.753652,18.8,138.6,-8.6,9.6,51.2,0.0,0.0,49.5,97.56,72.48
2019/01/09 19:17:24.111,30.3,29.577568,-95.753644,19.0,138.8,-8.1,9.5,52.2,0.0,0.0,50.1,98.36,72.94
2019/01/09 19:17:24.212,30.4,29.577566,-95.753637,19.1,138.9,-7.3,9.0,53.0,0.0,0.0,50.6,99.17,73.41
2019/01/09 19:17:24.312,30.5,29.577563,-95.753629,19.2,139.0,-6.7,8.0,53.3,0.0,0.0,51.0,99.95,73.87
2019/01/09 19:17:24.418,30.6,29.57756,-95.753621,19.3,139.1,-5.9,6.6,53.5,0.0,0.0,51.2,100.81,74.36
2019/01/09 19:17:24.523,30.7,29.577558,-95.753613,19.3,139.1,-5.5,5.9,53.7,0.0,0.0,51.4,101.63,74.84
2019/01/09 19:17:24.624,30.8,29.577555,-95.753605,19.4,139.2,-5.8,6.0,53.7,0.0,0.0,51.6,102.47,75.33
2019/01/09 19:17:24.827,30.9,29.577552,-95.753597,19.4,139.2,-5.2,5.1,53.8,0.0,0.0,51.9,103.25,75.78
2019/01/09 19:17:24.934,31.1,29.577547,-95.753583,19.5,139.3,-2.8,1.0,53.8,0.0,0.0,52.0,104.77,76.68
2019/01/09 19:17:25.036,31.2,29.577544,-95.753575,19.4,139.2,-2.1,-1.0,53.8,0.0,0.0,52.0,105.61,77.19
2019/01/09 19:17:25.143,31.3,29.577541,-95.753567,19.3,139.1,8.6,-16.3,51.3,0.0,0.0,52.1,106.39,77.66
2019/01/09 19:17:25.251,31.4,29.577539,-95.75356,19.3,139.1,12.7,-23.7,50.0,0.0,0.0,52.4,107.15,78.13
2019/01/09 19:17:25.358,31.5,29.577536,-95.753554,19.3,139.1,10.9,-22.1,50.6,0.0,0.0,52.6,107.81,78.54
2019/01/09 19:17:25.358,31.6,29.577534,-95.753547,19.2,139.0,11.9,-23.3,49.9,0.0,0.0,52.7,107.81,78.95
2019/01/09 19:17:25.461,31.7,29.577532,-95.753542,19.2,139.0,11.2,-23.5,50.2,0.0,0.0,52.9,109.01,79.29
2019/01/09 19:17:25.562,31.8,29.57753,-95.753537,19.2,139.0,11.3,-23.2,50.4,0.0,0.0,52.9,109.54,79.62
2019/01/09 19:17:25.665,31.9,29.577529,-95.753533,19.1,138.9,11.7,-23.5,50.3,0.0,0.0,53.0,109.98,79.9
2019/01/09 19:17:25.770,32.0,29.577528,-95.75353,19.0,138.8,12.1,-23.7,50.3,0.0,0.0,53.1,110.29,80.1
2019/01/09 19:17:25.872,32.1,29.577527,-95.753527,19.0,138.8,11.6,-23.9,50.7,0.0,0.0,53.3,110.6,80.3
2019/01/09 19:17:25.974,32.2,29.577526,-95.753524,19.0,138.8,11.3,-23.2,51.0,0.0,0.0,53.4,110.88,80.48
2019/01/09 19:17:26.076,32.3,29.577525,-95.753522,19.0,138.8,9.2,-22.3,51.6,-0.1,0.0,53.6,111.1,80.62
2019/01/09 19:17:26.186,32.4,29.577525,-95.753521,19.0,138.8,4.2,-21.0,53.2,-0.2,0.0,53.6,111.26,80.75
2019/01/09 19:17:26.293,32.5,29.577524,-95.753519,19.0,138.8,0.2,-18.3,54.2,-0.3,0.0,53.6,111.39,80.83
2019/01/09 19:17:26.398,32.6,29.577524,-95.753519,19.0,138.8,-0.8,-15.5,54.1,-0.4,0.0,53.7,111.47,80.89
2019/01/09 19:17:26.498,32.7,29.577524,-95.753518,19.0,138.8,-1.7,-12.6,54.0,-0.4,0.0,53.7,111.53,80.93
2019/01/09 19:17:26.603,32.8,29.577524,-95.753518,19.1,138.9,-2.4,-11.0,54.0,-0.5,0.0,53.6,111.58,80.97
2019/01/09 19:17:26.709,32.9,29.577524,-95.753517,19.2,139.0,-2.7,-9.9,53.9,-0.5,0.0,53.7,111.62,81.0
2019/01/09 19:17:26.810,33.0,29.577524,-95.753517,19.2,139.0,-2.9,-8.6,53.9,-0.5,0.0,53.7,111.66,81.03
2019/01/09 19:17:26.913,33.1,29.577524,-95.753516,19.2,139.0,-3.6,-8.7,53.8,-0.5,0.0,53.6,111.7,81.07
2019/01/09 19:17:27.016,33.2,29.577524,-95.753516,19.3,139.1,-4.0,-8.5,53.8,-0.5,0.0,53.6,111.75,81.1
2019/01/09 19:17:27.118,33.3,29.577523,-95.753515,19.4,139.2,-4.6,-7.5,53.9,-0.5,0.0,53.7,111.87,81.18
2019/01/09 19:17:27.219,33.4,29.577523,-95.753515,19.4,139.2,-5.2,-7.0,53.9,-0.5,0.0,53.6,111.91,81.19
2019/01/09 19:17:27.328,33.5,29.577523,-95.753514,19.5,139.3,-5.5,-6.7,54.0,-0.5,0.0,53.6,111.96,81.2
2019/01/09 19:17:27.432,33.6,29.577522,-95.753514,19.5,139.3,-5.8,-6.6,54.0,-0.5,0.0,53.6,112.0,81.22
2019/01/09 19:17:27.534,33.7,29.577522,-95.753514,19.5,139.3,-6.4,-6.6,54.0,-0.5,0.0,53.6,112.05,81.23
2019/01/09 19:17:27.634,33.8,29.577521,-95.753513,19.5,139.3,-6.6,-6.1,54.2,-0.5,0.0,53.6,112.13,81.23
2019/01/09 19:17:27.741,33.9,29.577521,-95.753513,19.5,139.3,-6.6,-6.8,54.2,-0.5,0.0,53.6,112.18,81.24
2019/01/09 19:17:27.843,34.0,29.577521,-95.753513,19.5,139.3,-7.1,-6.8,54.3,-0.5,0.0,53.6,112.21,81.23
2019/01/09 19:17:27.843,34.1,29.57752,-95.753513,19.6,139.4,-7.3,-7.6,54.3,-0.5,0.0,53.6,112.21,81.21
2019/01/09 19:17:28.055,34.2,29.57752,-95.753513,19.6,139.4,-7.3,-7.3,54.3,-0.5,0.0,53.6,112.28,81.2
2019/01/09 19:17:28.055,34.3,29.57752,-95.753513,19.6,139.4,-7.3,-7.4,54.2,-0.5,0.0,53.6,112.28,81.19
2019/01/09 19:17:28.168,34.4,29.57752,-95.753513,19.6,139.4,-7.0,-7.3,54.2,-0.5,0.0,53.6,112.32,81.18
2019/01/09 19:17:28.273,34.5,29.57752,-95.753513,19.6,139.4,-6.8,-6.8,54.2,-0.5,0.0,53.6,112.33,81.17
2019/01/09 19:17:28.374,34.6,29.57752,-95.753513,19.7,139.5,-6.7,-6.0,54.2,-0.5,0.0,53.6,112.35,81.16
2019/01/09 19:17:28.479,34.7,29.577519,-95.753513,19.7,139.5,-6.5,-6.2,54.3,-0.5,0.0,53.6,112.36,81.16
2019/01/09 19:17:28.583,34.8,29.577519,-95.753513,19.7,139.5,-6.2,-5.9,54.3,-0.5,0.0,53.6,112.37,81.16
2019/01/09 19:17:28.689,34.9,29.577519,-95.753513,19.6,139.4,-5.8,-6.2,54.2,-0.5,0.0,53.6,112.37,81.16
2019/01/09 19:17:28.793,35.0,29.577519,-95.753513,19.7,139.5,-5.1,-6.7,54.1,-0.5,0.0,53.6,112.4,81.18
2019/01/09 19:17:28.899,35.1,29.577519,-95.753513,19.7,139.5,-5.0,-6.5,54.1,-0.5,0.0,53.6,112.4,81.19
2019/01/09 19:17:29.003,35.2,29.577519,-95.753513,19.7,139.5,-5.5,-5.7,54.0,-0.5,0.0,53.6,112.41,81.19
2019/01/09 19:17:29.108,35.3,29.577519,-95.753512,19.7,139.5,-6.3,-5.5,54.0,-0.5,0.0,53.6,112.41,81.2
2019/01/09 19:17:29.216,35.4,29.57752,-95.753512,19.7,139.5,-6.4,-5.2,54.0,-0.5,0.0,53.6,112.43,81.22
2019/01/09 19:17:29.326,35.5,29.57752,-95.753512,19.7,139.5,-6.5,-5.0,54.0,-0.5,0.0,53.6,112.44,81.22
2019/01/09 19:17:29.433,35.6,29.57752,-95.753512,19.7,139.5,-6.7,-4.7,53.9,-0.5,0.0,53.6,112.45,81.21
2019/01/09 19:17:29.539,35.7,29.57752,-95.753513,19.6,139.4,-6.7,-4.8,53.9,-0.5,0.0,53.6,112.46,81.2
2019/01/09 19:17:29.644,35.8,29.57752,-95.753513,19.6,139.4,-6.6,-4.1,53.9,-0.8,0.0,53.6,112.49,81.17
2019/01/09 19:17:29.644,35.9,29.57752,-95.753513,19.5,139.3,-6.6,-3.9,53.8,-0.8,0.0,53.6,112.49,81.16
2019/01/09 19:17:29.749,36.0,29.57752,-95.753513,19.5,139.3,-6.7,-3.8,53.8,-1.1,0.0,53.6,112.52,81.15
2019/01/09 19:17:29.853,36.1,29.57752,-95.753513,19.5,139.3,-6.9,-3.6,53.8,-1.5,0.0,53.6,112.53,81.14
2019/01/09 19:17:29.956,36.2,29.57752,-95.753513,19.5,139.3,-7.2,-3.3,53.9,-1.8,0.0,53.6,112.55,81.14
2019/01/09 19:17:30.063,36.3,29.57752,-95.753514,19.4,139.2,-7.3,-3.2,54.0,-1.8,0.0,53.6,112.57,81.13
2019/01/09 19:17:30.167,36.4,29.57752,-95.753514,19.4,139.2,-7.4,-3.4,54.0,-1.8,0.0,53.6,112.58,81.12
2019/01/09 19:17:30.270,36.5,29.57752,-95.753514,19.4,139.2,-7.5,-3.7,54.1,-1.8,0.0,53.6,112.59,81.11
2019/01/09 19:17:30.374,36.6,29.57752,-95.753514,19.4,139.2,-7.5,-3.9,54.2,-1.8,0.0,53.6,112.6,81.1
2019/01/09 19:17:30.474,36.7,29.57752,-95.753514,19.4,139.2,-7.7,-4.5,54.2,-1.8,0.0,53.6,112.62,81.08
2019/01/09 19:17:30.582,36.8,29.57752,-95.753514,19.4,139.2,-9.6,-4.7,54.3,-1.8,0.0,53.6,112.63,81.07
2019/01/09 19:17:30.685,36.9,29.57752,-95.753514,19.4,139.2,-13.1,-5.0,54.5,-1.8,0.0,53.6,112.64,81.07
2019/01/09 19:17:30.791,37.0,29.57752,-95.753514,19.3,139.1,-17.5,-5.3,54.7,-1.8,0.0,53.6,112.65,81.08
2019/01/09 19:17:30.897,37.1,29.57752,-95.753514,19.3,139.1,-20.8,-5.3,54.9,-1.8,0.0,53.6,112.67,81.1
2019/01/09 19:17:31.002,37.2,29.57752,-95.753513,19.4,139.2,-22.6,-5.4,54.8,-1.8,0.0,53.6,112.71,81.14
2019/01/09 19:17:31.107,37.3,29.57752,-95.753513,19.4,139.2,-22.6,-5.5,54.7,-1.8,0.0,53.6,112.78,81.21
2019/01/09 19:17:31.213,37.4,29.577521,-95.753512,19.3,139.1,-21.3,-5.3,54.5,-1.8,0.0,53.6,112.88,81.31
2019/01/09 19:17:31.322,37.5,29.577521,-95.753511,19.3,139.1,-19.1,-4.9,54.3,-1.8,0.0,53.5,113.03,81.45
2019/01/09 19:17:31.426,37.6,29.577522,-95.75351,19.3,139.1,-17.4,-4.2,54.1,-1.8,0.0,53.5,113.17,81.59
2019/01/09 19:17:31.529,37.7,29.577523,-95.753508,19.4,139.2,-16.5,-4.0,54.2,-1.8,0.0,53.5,113.33,81.75
2019/01/09 19:17:31.632,37.8,29.577524,-95.753507,19.4,139.2,-15.3,-4.4,54.2,-1.8,0.0,53.5,113.52,81.94
2019/01/09 19:17:31.736,37.9,29.577525,-95.753505,19.5,139.3,-14.4,-3.7,54.1,-1.8,0.0,53.5,113.72,82.13
2019/01/09 19:17:31.837,38.0,29.577527,-95.753503,19.7,139.5,-13.4,-3.9,54.1,-1.8,0.0,53.5,113.96,82.36
2019/01/09 19:17:31.944,38.1,29.577528,-95.753501,19.8,139.6,-13.3,-4.2,54.2,-1.8,0.0,53.5,114.18,82.58
2019/01/09 19:17:32.053,38.2,29.577529,-95.753499,20.0,139.8,-12.8,-3.9,54.3,-1.8,0.0,53.5,114.42,82.82
2019/01/09 19:17:32.053,38.3,29.57753,-95.753497,20.2,140.0,-12.5,-4.4,54.3,-1.8,0.0,53.5,114.42,83.05
2019/01/09 19:17:32.158,38.4,29.577532,-95.753495,20.4,140.2,-12.6,-5.2,54.3,-1.8,0.0,53.5,114.9,83.29
2019/01/09 19:17:32.259,38.5,29.577533,-95.753493,20.5,140.3,-12.7,-4.9,54.2,-1.8,0.0,53.5,115.14,83.53
2019/01/09 19:17:32.369,38.6,29.577534,-95.753491,20.8,140.6,-12.8,-5.4,54.2,-1.8,0.0,53.5,115.39,83.78
2019/01/09 19:17:32.474,38.7,29.577535,-95.753489,21.0,140.8,-12.1,-5.9,54.3,-1.8,0.0,53.5,115.64,84.03
2019/01/09 19:17:32.579,38.8,29.577537,-95.753487,21.2,141.0,-11.9,-5.0,54.2,-1.8,0.0,53.5,115.91,84.29
2019/01/09 19:17:32.683,38.9,29.577538,-95.753484,21.4,141.2,-12.2,-4.0,54.1,-1.8,0.0,53.5,116.17,84.55
2019/01/09 19:17:32.784,39.0,29.57754,-95.753482,21.7,141.5,-12.3,-3.2,54.2,-1.8,0.0,53.5,116.45,84.83
2019/01/09 19:17:32.893,39.1,29.577541,-95.75348,22.0,141.8,-12.7,-3.5,54.3,-1.8,0.0,53.5,116.72,85.1
2019/01/09 19:17:32.998,39.2,29.577542,-95.753478,22.2,142.0,-12.4,-3.8,54.3,-1.8,0.0,53.5,116.99,85.36
2019/01/09 19:17:33.107,39.3,29.577544,-95.753475,22.5,142.3,-11.9,-4.0,54.3,-1.8,0.0,53.5,117.26,85.63
2019/01/09 19:17:33.208,39.4,29.577546,-95.753473,22.8,142.6,-11.7,-4.2,54.4,-1.8,0.0,53.5,117.55,85.91
2019/01/09 19:17:33.314,39.5,29.577547,-95.753471,23.1,142.9,-10.7,-2.7,54.2,-1.8,0.0,53.5,117.83,86.19
2019/01/09 19:17:33.418,39.6,29.577549,-95.753468,23.4,143.2,-9.8,-1.9,54.1,-1.8,0.0,53.5,118.15,86.49
2019/01/09 19:17:33.522,39.7,29.577551,-95.753466,23.8,143.6,-8.1,-2.6,54.1,-1.8,0.0,53.5,118.43,86.77
2019/01/09 19:17:33.634,39.8,29.577552,-95.753464,24.2,144.0,-6.8,-3.5,54.1,-1.8,0.0,53.5,118.74,87.07
2019/01/09 19:17:33.739,39.9,29.577554,-95.753461,24.6,144.4,-6.0,-3.8,54.1,-1.8,0.0,53.5,119.02,87.35
2019/01/09 19:17:33.840,40.0,29.577555,-95.753459,25.0,144.8,-3.7,-4.2,54.0,-1.8,0.0,53.5,119.31,87.64
2019/01/09 19:17:33.944,40.1,29.577557,-95.753457,25.5,145.3,8.1,-4.2,53.6,-1.8,0.0,53.5,119.58,87.9
2019/01/09 19:17:34.045,40.2,29.577558,-95.753454,25.9,145.7,13.7,-3.9,53.4,-1.8,0.0,53.5,119.84,88.16
2019/01/09 19:17:34.151,40.3,29.577559,-95.753453,26.4,146.2,10.0,-4.3,53.8,-1.8,0.0,53.5,120.03,88.35
2019/01/09 19:17:34.151,40.4,29.57756,-95.753451,26.8,146.6,5.5,-4.9,53.9,-1.8,0.0,53.6,120.03,88.51
2019/01/09 19:17:34.259,40.5,29.57756,-95.75345,27.3,147.1,1.3,-5.1,54.0,-1.8,0.0,53.6,120.29,88.62
2019/01/09 19:17:34.368,40.6,29.577561,-95.75345,27.7,147.5,-2.1,-4.8,54.0,-1.8,0.0,53.6,120.38,88.7
2019/01/09 19:17:34.471,40.7,29.577561,-95.753449,28.1,147.9,-5.5,-5.1,54.2,-1.8,0.0,53.6,120.44,88.76
2019/01/09 19:17:34.574,40.8,29.577561,-95.753448,28.6,148.4,-7.5,-5.6,54.3,-1.8,0.0,53.6,120.51,88.83
2019/01/09 19:17:34.684,40.9,29.577561,-95.753448,28.9,148.7,-7.6,-5.8,54.2,-1.8,0.0,53.6,120.53,88.85
2019/01/09 19:17:34.796,41.0,29.577562,-95.753448,29.2,149.0,-7.5,-6.0,54.3,-1.8,0.0,53.6,120.6,88.91
2019/01/09 19:17:34.899,41.1,29.577562,-95.753447,29.6,149.4,-7.8,-6.5,54.4,-1.8,0.0,53.6,120.66,88.97
2019/01/09 19:17:35.004,41.2,29.577562,-95.753447,29.9,149.7,-7.4,-7.1,54.3,-1.8,0.0,53.6,120.72,89.04
2019/01/09 19:17:35.108,41.3,29.577562,-95.753446,30.2,150.0,-7.3,-6.6,54.3,-1.8,0.0,53.6,120.78,89.1
2019/01/09 19:17:35.214,41.4,29.577563,-95.753445,30.5,150.3,-7.1,-6.5,54.3,-1.8,0.0,53.6,120.84,89.16
2019/01/09 19:17:35.323,41.5,29.577563,-95.753445,30.9,150.7,-7.1,-5.9,54.3,-1.8,0.0,53.6,120.9,89.22
2019/01/09 19:17:35.431,41.6,29.577563,-95.753444,31.2,151.0,-6.9,-6.0,54.3,-1.8,0.0,53.6,120.97,89.29
2019/01/09 19:17:35.543,41.7,29.577564,-95.753444,31.6,151.4,-6.8,-5.3,54.3,-1.8,0.0,53.6,121.04,89.36
2019/01/09 19:17:35.649,41.8,29.577564,-95.753443,31.9,151.7,-6.9,-4.8,54.3,-1.8,0.0,53.6,121.14,89.46
2019/01/09 19:17:35.756,41.9,29.577565,-95.753442,32.2,152.0,-6.9,-4.8,54.4,-1.8,0.0,53.6,121.21,89.52
2019/01/09 19:17:35.756,42.0,29.577565,-95.753442,32.6,152.4,-7.1,-4.4,54.4,-1.8,0.0,53.6,121.21,89.59
2019/01/09 19:17:35.861,42.1,29.577565,-95.753441,33.0,152.8,-6.8,-4.3,54.3,-1.8,0.0,53.6,121.34,89.66
2019/01/09 19:17:35.961,42.2,29.577566,-95.753441,33.3,153.1,-6.4,-4.8,54.3,-1.8,0.0,53.6,121.43,89.74
2019/01/09 19:17:36.068,42.3,29.577566,-95.75344,33.7,153.5,-6.1,-5.6,54.2,-1.8,0.0,53.6,121.5,89.81
2019/01/09 19:17:36.173,42.4,29.577567,-95.753439,34.1,153.9,-5.4,-5.9,54.1,-1.8,0.0,53.6,121.58,89.88
2019/01/09 19:17:36.278,42.5,29.577567,-95.753439,34.4,154.2,-5.1,-5.9,54.0,-1.8,0.0,53.6,121.64,89.95
2019/01/09 19:17:36.383,42.6,29.577567,-95.753438,34.7,154.5,-4.4,-5.3,54.0,-1.8,0.0,53.6,121.71,90.01
2019/01/09 19:17:36.484,42.7,29.577568,-95.753438,35.0,154.8,-5.1,-4.3,54.1,-1.8,0.0,53.6,121.77,90.07
2019/01/09 19:17:36.584,42.8,29.577568,-95.753437,35.4,155.2,-5.8,-3.5,54.1,-1.8,0.0,53.6,121.83,90.13
2019/01/09 19:17:36.691,42.9,29.577568,-95.753437,35.7,155.5,-6.4,-4.5,54.0,-1.8,0.0,53.6,121.88,90.18
2019/01/09 19:17:36.793,43.0,29.577568,-95.753436,36.1,155.9,-6.5,-4.7,54.0,-1.8,0.0,53.6,121.93,90.23
2019/01/09 19:17:36.899,43.1,29.577569,-95.753436,36.4,156.2,-6.9,-4.6,54.1,-1.8,0.0,53.6,121.98,90.28
2019/01/09 19:17:37.001,43.2,29.577569,-95.753436,36.8,156.6,-7.5,-4.5,54.1,-1.8,0.0,53.6,122.02,90.32
2019/01/09 19:17:37.103,43.3,29.577569,-95.753435,37.1,156.9,-8.1,-4.3,54.2,-1.8,0.0,53.6,122.06,90.36
2019/01/09 19:17:37.213,43.4,29.57757,-95.753435,37.5,157.3,-7.0,-4.2,54.2,-1.8,0.0,53.6,122.11,90.41
2019/01/09 19:17:37.316,43.5,29.57757,-95.753435,37.9,157.7,-7.1,-3.7,54.1,-1.8,0.0,53.6,122.16,90.45
2019/01/09 19:17:37.426,43.6,29.57757,-95.753434,38.3,158.1,-8.0,-3.8,54.1,-1.8,0.0,53.6,122.2,90.49
2019/01/09 19:17:37.531,43.7,29.577571,-95.753434,38.7,158.5,-7.7,-4.2,54.0,-1.8,0.0,53.6,122.24,90.52
2019/01/09 19:17:37.642,43.8,29.577571,-95.753434,39.1,158.9,-7.5,-3.7,54.0,-1.8,0.0,53.6,122.29,90.57
2019/01/09 19:17:37.747,43.9,29.577571,-95.753434,39.5,159.3,-7.4,-3.5,54.0,-1.8,0.0,53.6,122.34,90.61
2019/01/09 19:17:37.851,44.0,29.577572,-95.753433,39.9,159.7,-8.7,-2.7,54.1,-1.8,0.0,53.6,122.38,90.64
2019/01/09 19:17:37.851,44.1,29.577572,-95.753433,40.3,160.1,-9.1,-2.6,54.0,-1.8,0.0,53.6,122.38,90.67
2019/01/09 19:17:37.957,44.2,29.577572,-95.753433,40.6,160.4,-9.0,-2.3,54.0,-1.8,0.0,53.6,122.45,90.7
2019/01/09 19:17:38.062,44.3,29.577573,-95.753433,41.1,160.9,-8.9,-2.0,54.1,-1.8,0.0,53.6,122.5,90.74
2019/01/09 19:17:38.166,44.4,29.577573,-95.753433,41.4,161.2,-7.8,-1.7,53.9,-1.8,0.0,53.6,122.55,90.78
2019/01/09 19:17:38.271,44.5,29.577573,-95.753432,41.8,161.6,-7.9,-2.0,54.0,-1.8,0.0,53.6,122.59,90.82
2019/01/09 19:17:38.376,44.6,29.577574,-95.753432,42.1,161.9,-8.0,-1.6,54.0,-1.8,0.0,53.6,122.64,90.86
2019/01/09 19:17:38.483,44.7,29.577574,-95.753432,42.4,162.2,-7.8,-1.3,53.9,-1.8,0.0,53.6,122.69,90.9
2019/01/09 19:17:38.590,44.8,29.577575,-95.753431,42.8,162.6,-8.3,-2.2,53.9,-1.8,0.0,53.6,122.77,90.97
2019/01/09 19:17:38.697,44.9,29.577575,-95.753431,43.1,162.9,-7.5,-2.0,54.0,-1.8,0.0,53.6,122.82,91.02
2019/01/09 19:17:38.802,45.0,29.577575,-95.753431,43.4,163.2,-6.5,-2.3,53.8,-1.8,0.0,53.6,122.88,91.08
2019/01/09 19:17:38.911,45.1,29.577576,-95.75343,43.7,163.5,-7.1,-1.8,53.9,-1.8,0.0,53.6,122.93,91.12
2019/01/09 19:17:39.014,45.2,29.577576,-95.75343,44.0,163.8,-7.6,-2.4,54.0,-1.8,0.0,53.6,122.97,91.16
2019/01/09 19:17:39.116,45.3,29.577576,-95.75343,44.3,164.1,-7.4,-3.0,54.1,-1.8,0.0,53.6,123.01,91.2
2019/01/09 19:17:39.229,45.4,29.577576,-95.753429,44.7,164.5,-7.1,-3.9,54.0,-1.8,0.0,53.6,123.05,91.24
2019/01/09 19:17:39.332,45.5,29.577576,-95.753429,45.0,164.8,-7.3,-4.7,54.0,-1.8,0.0,53.6,123.08,91.27
2019/01/09 19:17:39.441,45.6,29.577577,-95.753429,45.3,165.1,-8.0,-5.4,54.0,-1.8,0.0,53.6,123.1,91.29
2019/01/09 19:17:39.544,45.7,29.577577,-95.753429,45.6,165.4,-8.6,-5.3,54.1,-1.8,0.0,53.6,123.13,91.32
2019/01/09 19:17:39.653,45.8,29.577577,-95.753428,45.9,165.7,-8.7,-5.1,54.2,-1.8,0.0,53.6,123.15,91.34
2019/01/09 19:17:39.653,45.9,29.577577,-95.753428,46.2,166.0,-8.2,-4.9,54.2,-1.8,0.0,53.6,123.15,91.37
2019/01/09 19:17:39.763,46.0,29.577577,-95.753428,46.6,166.4,-7.8,-4.6,54.1,-1.8,0.0,53.6,123.21,91.4
2019/01/09 19:17:39.872,46.1,29.577577,-95.753428,46.9,166.7,-8.3,-4.6,54.3,-1.8,0.0,53.6,123.24,91.43
2019/01/09 19:17:39.981,46.2,29.577577,-95.753427,47.2,167.0,-8.9,-4.7,54.3,-1.8,0.0,53.6,123.27,91.46
2019/01/09 19:17:40.083,46.3,29.577577,-95.753427,47.5,167.3,-8.8,-4.9,54.2,-1.8,0.0,53.6,123.3,91.49
2019/01/09 19:17:40.188,46.4,29.577578,-95.753427,47.9,167.7,-8.5,-5.1,54.1,-1.8,0.0,53.6,123.34,91.53
2019/01/09 19:17:40.292,46.5,29.577578,-95.753426,48.3,168.1,-8.3,-5.3,54.1,-1.8,0.0,53.6,123.38,91.57
2019/01/09 19:17:40.393,46.6,29.577578,-95.753426,48.6,168.4,-8.5,-5.3,54.1,-1.8,0.0,53.6,123.41,91.6
2019/01/09 19:17:40.496,46.7,29.577578,-95.753426,48.9,168.7,-8.7,-5.0,54.2,-1.8,0.0,53.6,123.45,91.64
2019/01/09 19:17:40.602,46.8,29.577578,-95.753426,49.3,169.1,-8.3,-5.0,54.2,-1.8,0.0,53.6,123.48,91.67
2019/01/09 19:17:40.704,46.9,29.577579,-95.753425,49.6,169.4,-7.2,-5.2,54.2,-1.8,0.0,53.6,123.53,91.71
2019/01/09 19:17:40.808,47.0,29.577579,-95.753425,50.0,169.8,-5.6,-5.1,54.0,-1.8,0.0,53.6,123.56,91.74
2019/01/09 19:17:40.913,47.1,29.577579,-95.753425,50.3,170.1,-5.3,-5.3,54.0,-1.8,0.0,53.6,123.58,91.77
2019/01/09 19:17:41.022,47.2,29.577579,-95.753424,50.6,170.4,-6.3,-6.3,54.1,-1.8,0.0,53.6,123.61,91.79
2019/01/09 19:17:41.130,47.3,29.577579,-95.753424,50.8,170.6,-5.6,-5.9,54.1,-1.8,0.0,53.6,123.63,91.81
2019/01/09 19:17:41.239,47.4,29.577579,-95.753424,50.9,170.7,-5.1,-5.6,54.1,-1.8,0.0,53.6,123.64,91.83
2019/01/09 19:17:41.340,47.5,29.577579,-95.753424,51.0,170.8,-4.6,-5.3,53.9,-1.8,0.0,53.6,123.65,91.84
2019/01/09 19:17:41.448,47.6,29.577579,-95.753424,51.0,170.8,-4.8,-5.1,53.9,-1.8,0.0,53.6,123.65,91.84
2019/01/09 19:17:41.552,47.7,29.577579,-95.753424,51.0,170.8,-5.0,-5.1,53.9,-1.8,0.0,53.6,123.67,91.83
2019/01/09 19:17:41.655,47.8,29.577579,-95.753424,50.9,170.7,-6.1,-5.3,54.0,-1.8,0.0,53.6,123.68,91.82
2019/01/09 19:17:41.655,47.9,29.577579,-95.753424,50.9,170.7,-7.4,-5.8,54.0,-1.8,0.0,53.6,123.68,91.81
2019/01/09 19:17:41.763,48.0,29.577579,-95.753424,50.9,170.7,-8.3,-5.7,54.1,-1.8,0.0,53.6,123.71,91.8
2019/01/09 19:17:41.865,48.1,29.577579,-95.753424,50.9,170.7,-8.9,-5.7,54.2,-1.8,0.0,53.6,123.72,91.79
2019/01/09 19:17:41.969,48.2,29.577579,-95.753424,50.8,170.6,-9.5,-5.6,54.2,-1.8,0.0,53.6,123.72,91.78
2019/01/09 19:17:42.077,48.3,29.577579,-95.753424,50.8,170.6,-9.3,-5.7,54.2,-1.8,0.0,53.6,123.73,91.79
2019/01/09 19:17:42.180,48.4,29.577579,-95.753424,50.8,170.6,-9.0,-5.7,54.2,-1.8,0.0,53.6,123.75,91.81
2019/01/09 19:17:42.282,48.5,29.577579,-95.753424,50.8,170.6,-8.8,-5.5,54.2,-1.8,0.0,53.6,123.77,91.83
2019/01/09 19:17:42.391,48.6,29.577579,-95.753423,50.8,170.6,-8.0,-5.3,54.2,-1.8,0.0,53.6,123.84,91.89
2019/01/09 19:17:42.495,48.7,29.577579,-95.753423,50.8,170.6,-6.9,-5.0,54.1,-1.8,0.0,53.6,123.86,91.92
2019/01/09 19:17:42.599,48.8,29.57758,-95.753423,50.8,170.6,-6.4,-4.8,54.1,-1.8,0.0,53.6,123.89,91.95
2019/01/09 19:17:42.705,48.9,29.57758,-95.753423,50.8,170.6,-7.8,-4.7,54.1,-1.8,0.0,53.6,123.92,91.97
2019/01/09 19:17:42.813,49.0,29.57758,-95.753423,50.8,170.6,-10.2,-5.1,54.2,-1.8,0.0,53.6,123.98,92.03
2019/01/09 19:17:42.916,49.1,29.57758,-95.753422,50.8,170.6,-12.3,-5.6,54.4,-1.8,0.0,53.6,124.02,92.06
2019/01/09 19:17:43.018,49.2,29.577581,-95.753422,50.8,170.6,-14.2,-6.0,54.6,-1.8,0.0,53.6,124.06,92.1
2019/01/09 19:17:43.128,49.3,29.577581,-95.753422,50.7,170.5,-16.3,-6.1,54.8,-1.8,0.0,53.6,124.11,92.14
2019/01/09 19:17:43.237,49.4,29.577581,-95.753421,50.8,170.6,-17.8,-6.0,54.9,-1.8,0.0,53.6,124.17,92.2
2019/01/09 19:17:43.341,49.5,29.577582,-95.753421,50.8,170.6,-18.1,-5.8,54.9,-1.8,0.0,53.6,124.24,92.27
2019/01/09 19:17:43.446,49.6,29.577583,-95.75342,50.8,170.6,-16.3,-5.4,54.6,-1.8,0.0,53.6,124.34,92.36
2019/01/09 19:17:43.551,49.7,29.577583,-95.753419,50.8,170.6,-14.8,-5.2,54.5,-1.8,0.0,53.6,124.45,92.47
2019/01/09 19:17:43.658,49.8,29.577584,-95.753418,50.8,170.6,-13.5,-5.2,54.5,-1.8,0.0,53.6,124.58,92.59
2019/01/09 19:17:43.658,49.9,29.577585,-95.753417,50.8,170.6,-12.5,-5.4,54.5,-1.8,0.0,53.6,124.58,92.74
2019/01/09 19:17:43.761,50.0,29.577586,-95.753416,50.8,170.6,-11.8,-5.3,54.4,-1.8,0.0,53.6,124.87,92.89
2019/01/09 19:17:43.866,50.1,29.577586,-95.753415,50.8,170.6,-11.0,-5.3,54.3,-1.8,0.0,53.6,125.02,93.03
2019/01/09 19:17:43.971,50.2,29.577587,-95.753413,50.8,170.6,-10.0,-5.1,54.3,-1.8,0.0,53.5,125.18,93.18
2019/01/09 19:17:44.073,50.3,29.577588,-95.753412,50.8,170.6,-8.3,-5.0,54.1,-1.8,0.0,53.5,125.35,93.35
2019/01/09 19:17:44.176,50.4,29.577589,-95.753411,50.9,170.7,-1.4,-4.6,53.8,-1.8,0.0,53.6,125.51,93.51
2019/01/09 19:17:44.283,50.5,29.57759,-95.753409,50.8,170.6,2.2,-4.8,53.5,-1.8,0.0,53.6,125.65,93.65
2019/01/09 19:17:44.383,50.6,29.577591,-95.753408,50.8,170.6,-0.5,-4.7,53.5,-1.8,0.0,53.5,125.79,93.78
2019/01/09 19:17:44.486,50.7,29.577591,-95.753408,50.8,170.6,-7.1,-4.1,53.7,-1.8,0.0,53.5,125.89,93.88
2019/01/09 19:17:44.590,50.8,29.577592,-95.753407,50.8,170.6,-14.2,-3.9,54.0,-1.8,0.0,53.6,125.99,93.98
2019/01/09 19:17:44.701,50.9,29.577593,-95.753406,50.7,170.5,-18.8,-4.2,54.4,-1.8,0.0,53.6,126.09,94.07
2019/01/09 19:17:44.805,51.0,29.577593,-95.753405,50.7,170.5,-20.9,-4.5,54.7,-1.8,0.0,53.6,126.2,94.18
2019/01/09 19:17:44.907,51.1,29.577594,-95.753405,50.6,170.4,-21.3,-4.9,54.8,-1.8,0.0,53.5,126.27,94.25
2019/01/09 19:17:45.013,51.2,29.577595,-95.753403,50.6,170.4,-21.0,-5.1,54.8,-1.8,0.0,53.5,126.44,94.42
2019/01/09 19:17:45.116,51.3,29.577596,-95.753402,50.7,170.5,-20.7,-5.4,54.9,-1.8,0.0,53.5,126.63,94.6
2019/01/09 19:17:45.219,51.4,29.577597,-95.7534,50.7,170.5,-20.0,-5.5,54.9,-1.8,0.0,53.5,126.85,94.82
2019/01/09 19:17:45.325,51.5,29.577598,-95.753398,50.7,170.5,-19.0,-5.7,55.0,-1.8,0.0,53.5,127.08,95.05
2019/01/09 19:17:45.430,51.6,29.5776,-95.753396,50.7,170.5,-18.1,-6.0,55.0,-1.8,0.0,53.5,127.4,95.36
2019/01/09 19:17:45.537,51.7,29.577601,-95.753393,50.7,170.5,-17.3,-5.9,55.1,-1.8,0.0,53.5,127.67,95.63
2019/01/09 19:17:45.638,51.8,29.577603,-95.753391,50.8,170.6,-16.9,-5.9,55.0,-1.8,0.0,53.5,127.97,95.93
2019/01/09 19:17:45.743,51.9,29.577604,-95.753388,50.8,170.6,-16.6,-6.1,54.9,-1.8,0.0,53.5,128.27,96.23
2019/01/09 19:17:45.852,52.0,29.577606,-95.753385,50.9,170.7,-16.2,-6.1,54.9,-1.8,0.0,53.5,128.62,96.57
2019/01/09 19:17:45.953,52.1,29.577608,-95.753383,50.9,170.7,-15.6,-6.0,54.8,-1.8,0.0,53.5,128.92,96.88
2019/01/09 19:17:46.055,52.2,29.57761,-95.75338,50.8,170.6,-15.4,-5.9,55.2,-1.8,0.0,53.7,129.25,97.21
2019/01/09 19:17:46.055,52.3,29.577611,-95.753377,50.9,170.7,-15.8,-5.6,55.6,-1.8,0.0,53.8,129.25,97.52
2019/01/09 19:17:46.159,52.4,29.577613,-95.753374,50.9,170.7,-17.6,-5.8,55.7,-1.8,0.0,53.8,129.92,97.86
2019/01/09 19:17:46.262,52.5,29.577615,-95.753372,50.9,170.7,-19.7,-5.7,55.8,-1.8,0.0,53.8,130.25,98.19
2019/01/09 19:17:46.372,52.6,29.577617,-95.753369,50.9,170.7,-20.5,-5.5,56.0,-1.8,0.0,53.8,130.6,98.54
2019/01/09 19:17:46.474,52.7,29.577619,-95.753366,50.9,170.7,-20.8,-5.8,55.9,-1.8,0.0,53.8,130.95,98.89
2019/01/09 19:17:46.578,52.8,29.577621,-95.753363,50.8,170.6,-20.9,-5.6,55.9,-1.8,0.0,53.8,131.32,99.25
2019/01/09 19:17:46.679,52.9,29.577623,-95.753359,50.9,170.7,-20.8,-5.6,55.9,-1.8,0.0,53.8,131.71,99.64
2019/01/09 19:17:46.788,53.0,29.577625,-95.753356,50.9,170.7,-20.4,-5.8,55.8,-1.8,0.0,53.8,132.14,100.06
2019/01/09 19:17:46.890,53.1,29.577627,-95.753352,50.9,170.7,-20.0,-5.8,55.8,-1.8,0.0,53.8,132.57,100.49
2019/01/09 19:17:46.991,53.2,29.57763,-95.753348,50.9,170.7,-20.1,-5.8,55.8,-1.8,0.0,53.8,133.05,100.97
2019/01/09 19:17:47.093,53.3,29.577632,-95.753344,50.9,170.7,-20.3,-5.8,55.9,-1.8,0.0,53.8,133.54,101.46
2019/01/09 19:17:47.197,53.4,29.577635,-95.75334,50.9,170.7,-20.1,-6.0,55.9,-1.8,0.0,53.8,134.01,101.92
2019/01/09 19:17:47.297,53.5,29.577637,-95.753336,50.9,170.7,-19.9,-5.9,55.9,-1.8,0.0,53.8,134.46,102.38
2019/01/09 19:17:47.403,53.6,29.57764,-95.753332,51.0,170.8,-19.5,-5.8,55.8,-1.8,0.0,53.8,134.96,102.87
2019/01/09 19:17:47.509,53.7,29.577642,-95.753328,51.0,170.8,-18.6,-5.4,55.8,-1.8,0.0,53.8,135.41,103.32
2019/01/09 19:17:47.613,53.8,29.577645,-95.753324,51.0,170.8,-17.8,-5.3,55.7,-1.8,0.0,53.8,135.93,103.83
2019/01/09 19:17:47.714,53.9,29.577647,-95.75332,51.0,170.8,-17.6,-5.2,55.6,-1.8,0.0,53.8,136.42,104.32
2019/01/09 19:17:47.820,54.0,29.57765,-95.753315,51.0,170.8,-17.2,-5.2,55.6,-1.8,0.0,53.8,136.95,104.85
2019/01/09 19:17:47.925,54.1,29.577653,-95.753311,51.0,170.8,-17.1,-5.1,55.6,-1.8,0.0,53.8,137.47,105.37
2019/01/09 19:17:48.034,54.2,29.577656,-95.753306,51.0,170.8,-16.8,-5.1,55.5,-1.8,0.0,53.8,138.04,105.92
2019/01/09 19:17:48.141,54.3,29.577659,-95.753302,50.9,170.7,-16.7,-4.9,55.5,-1.8,0.0,53.8,138.57,106.45
2019/01/09 19:17:48.245,54.4,29.577662,-95.753297,50.9,170.7,-16.5,-5.0,55.5,-1.8,0.0,53.8,139.12,107.0
2019/01/09 19:17:48.349,54.5,29.577664,-95.753293,50.9,170.7,-16.4,-4.9,55.4,-1.8,0.0,53.8,139.65,107.53
2019/01/09 19:17:48.451,54.6,29.577667,-95.753288,50.8,170.6,-16.3,-4.5,55.3,-1.8,0.0,53.8,140.21,108.09
2019/01/09 19:17:48.552,54.7,29.57767,-95.753284,50.8,170.6,-15.8,-4.1,55.3,-1.8,0.0,53.8,140.75,108.62
2019/01/09 19:17:48.655,54.8,29.577673,-95.753279,50.8,170.6,-15.6,-3.9,55.3,-1.8,0.0,53.8,141.32,109.18
2019/01/09 19:17:48.655,54.9,29.577676,-95.753275,50.8,170.6,-15.2,-4.0,55.3,-1.8,0.0,53.8,141.32,109.72
2019/01/09 19:17:48.758,55.0,29.577679,-95.75327,50.7,170.5,-15.1,-4.1,55.3,-1.8,0.0,53.8,142.38,110.23
2019/01/09 19:17:48.863,55.1,29.577682,-95.753266,50.7,170.5,-15.1,-4.0,55.3,-1.8,0.0,53.8,142.92,110.77
2019/01/09 19:17:48.965,55.2,29.577685,-95.753261,50.7,170.5,-15.0,-4.1,55.3,-1.8,0.0,53.8,143.5,111.35
2019/01/09 19:17:49.072,55.3,29.577688,-95.753256,50.6,170.4,-14.8,-4.0,55.3,-1.8,0.0,53.8,144.06,111.91
2019/01/09 19:17:49.177,55.4,29.577691,-95.753251,50.6,170.4,-14.6,-4.1,55.3,-1.8,0.0,53.8,144.67,112.51
2019/01/09 19:17:49.278,55.5,29.577694,-95.753246,50.6,170.4,-14.1,-4.1,55.4,-1.8,0.0,53.8,145.23,113.06
2019/01/09 19:17:49.387,55.6,29.577697,-95.753242,50.6,170.4,-13.1,-4.1,55.3,-1.8,0.0,54.1,145.81,113.64
2019/01/09 19:17:49.495,55.7,29.5777,-95.753237,50.7,170.5,-12.6,-4.3,55.6,-1.8,0.0,54.7,146.37,114.2
2019/01/09 19:17:49.598,55.8,29.577703,-95.753232,50.7,170.5,-12.1,-4.3,56.7,-1.8,0.0,55.7,146.98,114.81
2019/01/09 19:17:49.702,55.9,29.577706,-95.753227,50.7,170.5,-12.1,-4.2,58.3,-1.8,0.0,55.7,147.53,115.35
2019/01/09 19:17:49.807,56.0,29.577709,-95.753223,50.7,170.5,-11.7,-4.4,60.6,-1.8,0.0,57.1,148.09,115.91
2019/01/09 19:17:49.908,56.1,29.577712,-95.753218,50.6,170.4,-11.5,-4.9,63.6,-1.8,0.0,58.9,148.61,116.43
2019/01/09 19:17:50.016,56.2,29.577715,-95.753214,50.6,170.4,-11.3,-5.1,66.8,-1.8,0.0,61.2,149.13,116.95
2019/01/09 19:17:50.116,56.3,29.577717,-95.753209,50.6,170.4,-11.2,-5.5,70.0,-1.8,0.0,63.9,149.66,117.47
2019/01/09 19:17:50.220,56.4,29.57772,-95.753205,50.6,170.4,-11.3,-6.2,72.8,-1.8,0.0,66.7,150.21,118.02
2019/01/09 19:17:50.321,56.5,29.577723,-95.7532,50.6,170.4,-11.2,-6.7,75.8,-1.8,0.0,69.7,150.73,118.54
2019/01/09 19:17:50.425,56.6,29.577726,-95.753195,50.6,170.4,-10.9,-6.9,78.9,-1.8,0.0,72.7,151.27,119.08
2019/01/09 19:17:50.531,56.7,29.577728,-95.753191,50.6,170.4,-10.7,-7.2,81.5,-1.8,0.0,75.3,151.77,119.58
2019/01/09 19:17:50.635,56.8,29.577731,-95.753186,50.6,170.4,-10.3,-7.4,83.3,-1.8,0.0,77.4,152.32,120.13
2019/01/09 19:17:50.736,56.9,29.577733,-95.753182,50.7,170.5,-10.3,-7.6,84.4,-1.8,0.0,79.1,152.85,120.66
2019/01/09 19:17:50.838,57.0,29.577736,-95.753177,50.7,170.5,-10.4,-7.9,85.4,-1.8,0.0,80.4,153.39,121.2
2019/01/09 19:17:50.944,57.1,29.577738,-95.753172,50.6,170.4,-10.3,-8.6,86.3,-1.8,0.0,81.4,153.94,121.75
2019/01/09 19:17:51.048,57.2,29.577741,-95.753167,50.7,170.5,-9.9,-9.6,87.0,-1.8,0.0,82.1,154.48,122.29
2019/01/09 19:17:51.150,57.3,29.577743,-95.753163,50.6,170.4,-9.7,-10.8,87.5,-1.8,0.0,82.6,154.99,122.8
2019/01/09 19:17:51.150,57.4,29.577746,-95.753158,50.6,170.4,-9.3,-12.0,87.6,-1.8,0.0,82.8,154.99,123.34
2019/01/09 19:17:51.257,57.5,29.577748,-95.753153,50.6,170.4,-9.2,-13.1,87.7,-1.8,0.0,83.0,156.04,123.85
2019/01/09 19:17:51.361,57.6,29.577751,-95.753149,50.7,170.5,-9.2,-14.0,87.7,-1.8,0.0,83.1,156.59,124.4
2019/01/09 19:17:51.464,57.7,29.577753,-95.753144,50.7,170.5,-9.2,-14.4,87.7,-1.8,0.0,83.3,157.1,124.91
2019/01/09 19:17:51.572,57.8,29.577756,-95.75314,50.6,170.4,-9.2,-15.0,87.8,-1.8,0.0,83.4,157.63,125.44
2019/01/09 19:17:51.682,57.9,29.577758,-95.753135,50.6,170.4,-9.1,-15.6,87.8,-1.8,0.0,83.4,158.13,125.94
2019/01/09 19:17:51.788,58.0,29.577761,-95.753131,50.6,170.4,-9.3,-16.7,87.9,-1.8,0.0,83.4,158.68,126.48
2019/01/09 19:17:51.893,58.1,29.577764,-95.753126,50.6,170.4,-9.3,-18.1,88.0,-1.8,0.0,83.5,159.21,127.01
2019/01/09 19:17:52,58.2,29.577767,-95.753122,50.7,170.5,-9.2,-19.1,88.1,-1.8,0.0,83.6,159.78,127.57
2019/01/09 19:17:52.106,58.3,29.57777,-95.753117,50.7,170.5,-9.4,-20.2,88.2,-1.8,0.0,83.6,160.33,128.11
2019/01/09 19:17:52.206,58.4,29.577774,-95.753112,50.7,170.5,-9.2,-21.3,88.3,-1.8,0.0,83.7,160.96,128.73
2019/01/09 19:17:52.309,58.5,29.577777,-95.753108,50.7,170.5,-8.6,-22.5,88.3,-1.8,0.0,83.7,161.5,129.27
2019/01/09 19:17:52.412,58.6,29.577781,-95.753104,50.7,170.5,-7.7,-22.8,88.1,-1.8,0.0,83.7,162.07,129.82
2019/01/09 19:17:52.516,58.7,29.577785,-95.7531,50.7,170.5,-7.3,-23.3,88.1,-1.8,0.0,83.7,162.62,130.35
2019/01/09 19:17:52.619,58.8,29.577788,-95.753097,50.7,170.5,-7.3,-23.6,88.1,-1.8,0.0,83.8,163.17,130.86
2019/01/09 19:17:52.722,58.9,29.577792,-95.753093,50.7,170.5,-7.2,-23.7,88.1,-1.8,0.0,83.8,163.74,131.39
2019/01/09 19:17:52.824,59.0,29.577797,-95.753089,50.7,170.5,-6.8,-23.7,88.1,-1.8,0.0,83.8,164.35,131.96
2019/01/09 19:17:52.932,59.1,29.577801,-95.753085,50.7,170.5,-6.5,-24.1,88.0,-1.8,0.0,83.9,164.94,132.5
2019/01/09 19:17:53.036,59.2,29.577806,-95.753082,50.7,170.5,-6.3,-24.5,88.0,-1.8,0.0,83.9,165.59,133.08
2019/01/09 19:17:53.138,59.3,29.577811,-95.753079,50.8,170.6,-5.8,-24.2,87.8,-1.8,0.0,84.0,166.2,133.62
